[
{"model": "jma.AreaInformationCity", "pk": 1, "fields": { "code": "0123500", "name": "石狩市", "lon": "141.315520", "lat": "43.171384" } },
{"model": "jma.AreaInformationCity", "pk": 2, "fields": { "code": "0130300", "name": "当別町", "lon": "141.517072", "lat": "43.223683" } },
{"model": "jma.AreaInformationCity", "pk": 3, "fields": { "code": "0130400", "name": "新篠津村", "lon": "141.649216", "lat": "43.225424" } },
{"model": "jma.AreaInformationCity", "pk": 4, "fields": { "code": "0110100", "name": "札幌中央区", "lon": "141.340956", "lat": "43.055460" } },
{"model": "jma.AreaInformationCity", "pk": 5, "fields": { "code": "0110200", "name": "札幌北区", "lon": "141.340831", "lat": "43.090850" } },
{"model": "jma.AreaInformationCity", "pk": 6, "fields": { "code": "0110300", "name": "札幌東区", "lon": "141.363722", "lat": "43.076069" } },
{"model": "jma.AreaInformationCity", "pk": 7, "fields": { "code": "0110400", "name": "札幌白石区", "lon": "141.405078", "lat": "43.047687" } },
{"model": "jma.AreaInformationCity", "pk": 8, "fields": { "code": "0110500", "name": "札幌豊平区", "lon": "141.380106", "lat": "43.031291" } },
{"model": "jma.AreaInformationCity", "pk": 9, "fields": { "code": "0110600", "name": "札幌南区", "lon": "141.353497", "lat": "42.990031" } },
{"model": "jma.AreaInformationCity", "pk": 10, "fields": { "code": "0110700", "name": "札幌西区", "lon": "141.300889", "lat": "43.074470" } },
{"model": "jma.AreaInformationCity", "pk": 11, "fields": { "code": "0110800", "name": "札幌厚別区", "lon": "141.474789", "lat": "43.036408" } },
{"model": "jma.AreaInformationCity", "pk": 12, "fields": { "code": "0110900", "name": "札幌手稲区", "lon": "141.245632", "lat": "43.121944" } },
{"model": "jma.AreaInformationCity", "pk": 13, "fields": { "code": "0111000", "name": "札幌清田区", "lon": "141.443830", "lat": "42.999636" } },
{"model": "jma.AreaInformationCity", "pk": 14, "fields": { "code": "0121700", "name": "江別市", "lon": "141.536247", "lat": "43.103745" } },
{"model": "jma.AreaInformationCity", "pk": 15, "fields": { "code": "0122400", "name": "千歳市", "lon": "141.650876", "lat": "42.820958" } },
{"model": "jma.AreaInformationCity", "pk": 16, "fields": { "code": "0123100", "name": "恵庭市", "lon": "141.577815", "lat": "42.882562" } },
{"model": "jma.AreaInformationCity", "pk": 17, "fields": { "code": "0123400", "name": "北広島市", "lon": "141.563543", "lat": "42.985630" } },
{"model": "jma.AreaInformationCity", "pk": 18, "fields": { "code": "0134600", "name": "八雲町", "lon": "140.265281", "lat": "42.255999" } },
{"model": "jma.AreaInformationCity", "pk": 19, "fields": { "code": "0134700", "name": "長万部町", "lon": "140.380633", "lat": "42.513688" } },
{"model": "jma.AreaInformationCity", "pk": 20, "fields": { "code": "0120200", "name": "函館市", "lon": "140.728810", "lat": "41.768793" } },
{"model": "jma.AreaInformationCity", "pk": 21, "fields": { "code": "0123600", "name": "渡島北斗市", "lon": "140.652903", "lat": "41.824060" } },
{"model": "jma.AreaInformationCity", "pk": 22, "fields": { "code": "0133700", "name": "七飯町", "lon": "140.694280", "lat": "41.895720" } },
{"model": "jma.AreaInformationCity", "pk": 23, "fields": { "code": "0134300", "name": "鹿部町", "lon": "140.815939", "lat": "42.038487" } },
{"model": "jma.AreaInformationCity", "pk": 24, "fields": { "code": "0134500", "name": "渡島森町", "lon": "140.576324", "lat": "42.104795" } },
{"model": "jma.AreaInformationCity", "pk": 25, "fields": { "code": "0133100", "name": "渡島松前町", "lon": "140.110435", "lat": "41.430037" } },
{"model": "jma.AreaInformationCity", "pk": 26, "fields": { "code": "0133200", "name": "福島町", "lon": "140.251326", "lat": "41.483802" } },
{"model": "jma.AreaInformationCity", "pk": 27, "fields": { "code": "0133300", "name": "知内町", "lon": "140.418963", "lat": "41.598356" } },
{"model": "jma.AreaInformationCity", "pk": 28, "fields": { "code": "0133400", "name": "木古内町", "lon": "140.437568", "lat": "41.678264" } },
{"model": "jma.AreaInformationCity", "pk": 29, "fields": { "code": "0136100", "name": "檜山江差町", "lon": "140.127460", "lat": "41.869156" } },
{"model": "jma.AreaInformationCity", "pk": 30, "fields": { "code": "0136200", "name": "上ノ国町", "lon": "140.121348", "lat": "41.801082" } },
{"model": "jma.AreaInformationCity", "pk": 31, "fields": { "code": "0136300", "name": "厚沢部町", "lon": "140.225472", "lat": "41.920901" } },
{"model": "jma.AreaInformationCity", "pk": 32, "fields": { "code": "0136400", "name": "乙部町", "lon": "140.135719", "lat": "41.968501" } },
{"model": "jma.AreaInformationCity", "pk": 33, "fields": { "code": "0137000", "name": "今金町", "lon": "140.008878", "lat": "42.429422" } },
{"model": "jma.AreaInformationCity", "pk": 34, "fields": { "code": "0137100", "name": "せたな町", "lon": "139.882988", "lat": "42.417161" } },
{"model": "jma.AreaInformationCity", "pk": 35, "fields": { "code": "0120300", "name": "小樽市", "lon": "140.994662", "lat": "43.190717" } },
{"model": "jma.AreaInformationCity", "pk": 36, "fields": { "code": "0140500", "name": "積丹町", "lon": "140.598193", "lat": "43.298853" } },
{"model": "jma.AreaInformationCity", "pk": 37, "fields": { "code": "0140600", "name": "古平町", "lon": "140.638820", "lat": "43.265360" } },
{"model": "jma.AreaInformationCity", "pk": 38, "fields": { "code": "0140700", "name": "仁木町", "lon": "140.766130", "lat": "43.151691" } },
{"model": "jma.AreaInformationCity", "pk": 39, "fields": { "code": "0140800", "name": "余市町", "lon": "140.783467", "lat": "43.195232" } },
{"model": "jma.AreaInformationCity", "pk": 40, "fields": { "code": "0140900", "name": "赤井川村", "lon": "140.813481", "lat": "43.083490" } },
{"model": "jma.AreaInformationCity", "pk": 41, "fields": { "code": "0139500", "name": "ニセコ町", "lon": "140.687493", "lat": "42.804705" } },
{"model": "jma.AreaInformationCity", "pk": 42, "fields": { "code": "0139600", "name": "真狩村", "lon": "140.803744", "lat": "42.762971" } },
{"model": "jma.AreaInformationCity", "pk": 43, "fields": { "code": "0139700", "name": "留寿都村", "lon": "140.875591", "lat": "42.737360" } },
{"model": "jma.AreaInformationCity", "pk": 44, "fields": { "code": "0139800", "name": "喜茂別町", "lon": "140.934500", "lat": "42.795472" } },
{"model": "jma.AreaInformationCity", "pk": 45, "fields": { "code": "0139900", "name": "京極町", "lon": "140.884088", "lat": "42.858208" } },
{"model": "jma.AreaInformationCity", "pk": 46, "fields": { "code": "0140000", "name": "倶知安町", "lon": "140.758698", "lat": "42.901829" } },
{"model": "jma.AreaInformationCity", "pk": 47, "fields": { "code": "0139100", "name": "島牧村", "lon": "140.061460", "lat": "42.700520" } },
{"model": "jma.AreaInformationCity", "pk": 48, "fields": { "code": "0139200", "name": "寿都町", "lon": "140.228980", "lat": "42.790979" } },
{"model": "jma.AreaInformationCity", "pk": 49, "fields": { "code": "0139300", "name": "黒松内町", "lon": "140.307540", "lat": "42.667864" } },
{"model": "jma.AreaInformationCity", "pk": 50, "fields": { "code": "0139400", "name": "蘭越町", "lon": "140.528312", "lat": "42.809075" } },
{"model": "jma.AreaInformationCity", "pk": 51, "fields": { "code": "0140100", "name": "共和町", "lon": "140.758698", "lat": "42.901829" } },
{"model": "jma.AreaInformationCity", "pk": 52, "fields": { "code": "0140200", "name": "岩内町", "lon": "140.514753", "lat": "42.979785" } },
{"model": "jma.AreaInformationCity", "pk": 53, "fields": { "code": "0140300", "name": "泊村", "lon": "140.498859", "lat": "43.063355" } },
{"model": "jma.AreaInformationCity", "pk": 54, "fields": { "code": "0140400", "name": "神恵内村", "lon": "140.430742", "lat": "43.143813" } },
{"model": "jma.AreaInformationCity", "pk": 55, "fields": { "code": "0136700", "name": "奥尻町", "lon": "139.514008", "lat": "42.172278" } },
{"model": "jma.AreaInformationCity", "pk": 56, "fields": { "code": "0122800", "name": "深川市", "lon": "142.053538", "lat": "43.723260" } },
{"model": "jma.AreaInformationCity", "pk": 57, "fields": { "code": "0143300", "name": "妹背牛町", "lon": "141.961711", "lat": "43.700112" } },
{"model": "jma.AreaInformationCity", "pk": 58, "fields": { "code": "0143400", "name": "秩父別町", "lon": "141.957958", "lat": "43.767013" } },
{"model": "jma.AreaInformationCity", "pk": 59, "fields": { "code": "0143700", "name": "北竜町", "lon": "141.879022", "lat": "43.731356" } },
{"model": "jma.AreaInformationCity", "pk": 60, "fields": { "code": "0143800", "name": "沼田町", "lon": "141.933272", "lat": "43.806802" } },
{"model": "jma.AreaInformationCity", "pk": 61, "fields": { "code": "0121600", "name": "芦別市", "lon": "142.189436", "lat": "43.518166" } },
{"model": "jma.AreaInformationCity", "pk": 62, "fields": { "code": "0121800", "name": "赤平市", "lon": "142.044211", "lat": "43.558074" } },
{"model": "jma.AreaInformationCity", "pk": 63, "fields": { "code": "0122500", "name": "滝川市", "lon": "141.910190", "lat": "43.557795" } },
{"model": "jma.AreaInformationCity", "pk": 64, "fields": { "code": "0122600", "name": "砂川市", "lon": "141.903465", "lat": "43.494843" } },
{"model": "jma.AreaInformationCity", "pk": 65, "fields": { "code": "0122700", "name": "歌志内市", "lon": "142.034568", "lat": "43.521353" } },
{"model": "jma.AreaInformationCity", "pk": 66, "fields": { "code": "0142400", "name": "奈井江町", "lon": "141.882788", "lat": "43.425106" } },
{"model": "jma.AreaInformationCity", "pk": 67, "fields": { "code": "0142500", "name": "上砂川町", "lon": "141.984084", "lat": "43.482608" } },
{"model": "jma.AreaInformationCity", "pk": 68, "fields": { "code": "0143100", "name": "浦臼町", "lon": "141.818837", "lat": "43.430322" } },
{"model": "jma.AreaInformationCity", "pk": 69, "fields": { "code": "0143200", "name": "新十津川町", "lon": "141.877032", "lat": "43.548547" } },
{"model": "jma.AreaInformationCity", "pk": 70, "fields": { "code": "0143600", "name": "雨竜町", "lon": "141.888990", "lat": "43.643924" } },
{"model": "jma.AreaInformationCity", "pk": 71, "fields": { "code": "0120900", "name": "夕張市", "lon": "141.973896", "lat": "43.056734" } },
{"model": "jma.AreaInformationCity", "pk": 72, "fields": { "code": "0121000", "name": "岩見沢市", "lon": "141.775933", "lat": "43.196206" } },
{"model": "jma.AreaInformationCity", "pk": 73, "fields": { "code": "0121500", "name": "美唄市", "lon": "141.853785", "lat": "43.332881" } },
{"model": "jma.AreaInformationCity", "pk": 74, "fields": { "code": "0122200", "name": "三笠市", "lon": "141.875327", "lat": "43.245435" } },
{"model": "jma.AreaInformationCity", "pk": 75, "fields": { "code": "0142300", "name": "南幌町", "lon": "141.650069", "lat": "43.063727" } },
{"model": "jma.AreaInformationCity", "pk": 76, "fields": { "code": "0142700", "name": "由仁町", "lon": "141.984084", "lat": "43.482608" } },
{"model": "jma.AreaInformationCity", "pk": 77, "fields": { "code": "0142800", "name": "長沼町", "lon": "141.984084", "lat": "43.482608" } },
{"model": "jma.AreaInformationCity", "pk": 78, "fields": { "code": "0142900", "name": "栗山町", "lon": "141.784255", "lat": "43.056309" } },
{"model": "jma.AreaInformationCity", "pk": 79, "fields": { "code": "0143000", "name": "月形町", "lon": "141.669451", "lat": "43.338436" } },
{"model": "jma.AreaInformationCity", "pk": 80, "fields": { "code": "0122000", "name": "士別市", "lon": "142.400404", "lat": "44.178734" } },
{"model": "jma.AreaInformationCity", "pk": 81, "fields": { "code": "0122100", "name": "名寄市", "lon": "142.463167", "lat": "44.355938" } },
{"model": "jma.AreaInformationCity", "pk": 82, "fields": { "code": "0146400", "name": "和寒町", "lon": "142.413306", "lat": "44.023068" } },
{"model": "jma.AreaInformationCity", "pk": 83, "fields": { "code": "0146500", "name": "剣淵町", "lon": "142.361221", "lat": "44.095677" } },
{"model": "jma.AreaInformationCity", "pk": 84, "fields": { "code": "0146800", "name": "下川町", "lon": "142.635308", "lat": "44.302503" } },
{"model": "jma.AreaInformationCity", "pk": 85, "fields": { "code": "0146900", "name": "美深町", "lon": "142.635308", "lat": "44.302503" } },
{"model": "jma.AreaInformationCity", "pk": 86, "fields": { "code": "0147000", "name": "音威子府村", "lon": "142.635308", "lat": "44.302503" } },
{"model": "jma.AreaInformationCity", "pk": 87, "fields": { "code": "0147100", "name": "上川中川町", "lon": "142.635308", "lat": "44.302503" } },
{"model": "jma.AreaInformationCity", "pk": 88, "fields": { "code": "0147200", "name": "幌加内町", "lon": "142.635308", "lat": "44.302503" } },
{"model": "jma.AreaInformationCity", "pk": 89, "fields": { "code": "0120400", "name": "旭川市", "lon": "142.364819", "lat": "43.770636" } },
{"model": "jma.AreaInformationCity", "pk": 90, "fields": { "code": "0145200", "name": "鷹栖町", "lon": "142.354451", "lat": "43.843353" } },
{"model": "jma.AreaInformationCity", "pk": 91, "fields": { "code": "0145300", "name": "東神楽町", "lon": "142.451437", "lat": "43.696626" } },
{"model": "jma.AreaInformationCity", "pk": 92, "fields": { "code": "0145400", "name": "当麻町", "lon": "142.508366", "lat": "43.828177" } },
{"model": "jma.AreaInformationCity", "pk": 93, "fields": { "code": "0145500", "name": "比布町", "lon": "142.477552", "lat": "43.875076" } },
{"model": "jma.AreaInformationCity", "pk": 94, "fields": { "code": "0145600", "name": "愛別町", "lon": "142.577973", "lat": "43.906504" } },
{"model": "jma.AreaInformationCity", "pk": 95, "fields": { "code": "0145700", "name": "上川地方上川町", "lon": "142.770431", "lat": "43.847180" } },
{"model": "jma.AreaInformationCity", "pk": 96, "fields": { "code": "0145800", "name": "東川町", "lon": "142.510317", "lat": "43.698974" } },
{"model": "jma.AreaInformationCity", "pk": 97, "fields": { "code": "0145900", "name": "美瑛町", "lon": "142.466972", "lat": "43.588187" } },
{"model": "jma.AreaInformationCity", "pk": 98, "fields": { "code": "0122900", "name": "富良野市", "lon": "142.383225", "lat": "43.342140" } },
{"model": "jma.AreaInformationCity", "pk": 99, "fields": { "code": "0146000", "name": "上富良野町", "lon": "142.466972", "lat": "43.588187" } },
{"model": "jma.AreaInformationCity", "pk": 100, "fields": { "code": "0146100", "name": "中富良野町", "lon": "142.466972", "lat": "43.588187" } },
{"model": "jma.AreaInformationCity", "pk": 101, "fields": { "code": "0146200", "name": "南富良野町", "lon": "142.466972", "lat": "43.588187" } },
{"model": "jma.AreaInformationCity", "pk": 102, "fields": { "code": "0146300", "name": "占冠村", "lon": "142.466972", "lat": "43.588187" } },
{"model": "jma.AreaInformationCity", "pk": 103, "fields": { "code": "0148300", "name": "苫前町", "lon": "142.635308", "lat": "44.302503" } },
{"model": "jma.AreaInformationCity", "pk": 104, "fields": { "code": "0148400", "name": "羽幌町", "lon": "142.635308", "lat": "44.302503" } },
{"model": "jma.AreaInformationCity", "pk": 105, "fields": { "code": "0148500", "name": "初山別村", "lon": "142.635308", "lat": "44.302503" } },
{"model": "jma.AreaInformationCity", "pk": 106, "fields": { "code": "0148600", "name": "遠別町", "lon": "142.635308", "lat": "44.302503" } },
{"model": "jma.AreaInformationCity", "pk": 107, "fields": { "code": "0148700", "name": "天塩町", "lon": "142.635308", "lat": "44.302503" } },
{"model": "jma.AreaInformationCity", "pk": 108, "fields": { "code": "0121200", "name": "留萌市", "lon": "141.637012", "lat": "43.940987" } },
{"model": "jma.AreaInformationCity", "pk": 109, "fields": { "code": "0148100", "name": "増毛町", "lon": "142.635308", "lat": "44.302503" } },
{"model": "jma.AreaInformationCity", "pk": 110, "fields": { "code": "0148200", "name": "小平町", "lon": "142.635308", "lat": "44.302503" } },
{"model": "jma.AreaInformationCity", "pk": 111, "fields": { "code": "0121400", "name": "稚内市", "lon": "141.673082", "lat": "45.415664" } },
{"model": "jma.AreaInformationCity", "pk": 112, "fields": { "code": "0151100", "name": "猿払村", "lon": "142.635308", "lat": "44.302503" } },
{"model": "jma.AreaInformationCity", "pk": 113, "fields": { "code": "0151600", "name": "豊富町", "lon": "142.635308", "lat": "44.302503" } },
{"model": "jma.AreaInformationCity", "pk": 114, "fields": { "code": "0152000", "name": "幌延町", "lon": "142.635308", "lat": "44.302503" } },
{"model": "jma.AreaInformationCity", "pk": 115, "fields": { "code": "0151200", "name": "浜頓別町", "lon": "142.635308", "lat": "44.302503" } },
{"model": "jma.AreaInformationCity", "pk": 116, "fields": { "code": "0151300", "name": "中頓別町", "lon": "142.635308", "lat": "44.302503" } },
{"model": "jma.AreaInformationCity", "pk": 117, "fields": { "code": "0151400", "name": "宗谷枝幸町", "lon": "142.635308", "lat": "44.302503" } },
{"model": "jma.AreaInformationCity", "pk": 118, "fields": { "code": "0151700", "name": "礼文町", "lon": "142.635308", "lat": "44.302503" } },
{"model": "jma.AreaInformationCity", "pk": 119, "fields": { "code": "0151800", "name": "利尻町", "lon": "142.635308", "lat": "44.302503" } },
{"model": "jma.AreaInformationCity", "pk": 120, "fields": { "code": "0151900", "name": "利尻富士町", "lon": "142.635308", "lat": "44.302503" } },
{"model": "jma.AreaInformationCity", "pk": 121, "fields": { "code": "0121100", "name": "網走市", "lon": "144.273398", "lat": "44.020632" } },
{"model": "jma.AreaInformationCity", "pk": 122, "fields": { "code": "0154300", "name": "美幌町", "lon": "142.635308", "lat": "44.302503" } },
{"model": "jma.AreaInformationCity", "pk": 123, "fields": { "code": "0154400", "name": "津別町", "lon": "142.635308", "lat": "44.302503" } },
{"model": "jma.AreaInformationCity", "pk": 124, "fields": { "code": "0154500", "name": "斜里町", "lon": "142.635308", "lat": "44.302503" } },
{"model": "jma.AreaInformationCity", "pk": 125, "fields": { "code": "0154600", "name": "清里町", "lon": "142.635308", "lat": "44.302503" } },
{"model": "jma.AreaInformationCity", "pk": 126, "fields": { "code": "0154700", "name": "小清水町", "lon": "142.635308", "lat": "44.302503" } },
{"model": "jma.AreaInformationCity", "pk": 127, "fields": { "code": "0156400", "name": "大空町", "lon": "142.635308", "lat": "44.302503" } },
{"model": "jma.AreaInformationCity", "pk": 128, "fields": { "code": "0120800", "name": "北見市", "lon": "143.895876", "lat": "43.804031" } },
{"model": "jma.AreaInformationCity", "pk": 129, "fields": { "code": "0154900", "name": "訓子府町", "lon": "142.635308", "lat": "44.302503" } },
{"model": "jma.AreaInformationCity", "pk": 130, "fields": { "code": "0155000", "name": "置戸町", "lon": "142.635308", "lat": "44.302503" } },
{"model": "jma.AreaInformationCity", "pk": 131, "fields": { "code": "0155200", "name": "佐呂間町", "lon": "142.635308", "lat": "44.302503" } },
{"model": "jma.AreaInformationCity", "pk": 132, "fields": { "code": "0121900", "name": "紋別市", "lon": "143.354503", "lat": "44.356484" } },
{"model": "jma.AreaInformationCity", "pk": 133, "fields": { "code": "0155500", "name": "遠軽町", "lon": "142.635308", "lat": "44.302503" } },
{"model": "jma.AreaInformationCity", "pk": 134, "fields": { "code": "0155900", "name": "湧別町", "lon": "142.635308", "lat": "44.302503" } },
{"model": "jma.AreaInformationCity", "pk": 135, "fields": { "code": "0156000", "name": "滝上町", "lon": "142.635308", "lat": "44.302503" } },
{"model": "jma.AreaInformationCity", "pk": 136, "fields": { "code": "0156100", "name": "興部町", "lon": "142.635308", "lat": "44.302503" } },
{"model": "jma.AreaInformationCity", "pk": 137, "fields": { "code": "0156200", "name": "西興部村", "lon": "142.635308", "lat": "44.302503" } },
{"model": "jma.AreaInformationCity", "pk": 138, "fields": { "code": "0156300", "name": "雄武町", "lon": "142.635308", "lat": "44.302503" } },
{"model": "jma.AreaInformationCity", "pk": 139, "fields": { "code": "0123300", "name": "胆振伊達市", "lon": "140.864679", "lat": "42.471851" } },
{"model": "jma.AreaInformationCity", "pk": 140, "fields": { "code": "0157100", "name": "豊浦町", "lon": "142.635308", "lat": "44.302503" } },
{"model": "jma.AreaInformationCity", "pk": 141, "fields": { "code": "0157500", "name": "壮瞥町", "lon": "142.635308", "lat": "44.302503" } },
{"model": "jma.AreaInformationCity", "pk": 142, "fields": { "code": "0158400", "name": "洞爺湖町", "lon": "142.071438", "lat": "44.811346" } },
{"model": "jma.AreaInformationCity", "pk": 143, "fields": { "code": "0120500", "name": "室蘭市", "lon": "140.973799", "lat": "42.315231" } },
{"model": "jma.AreaInformationCity", "pk": 144, "fields": { "code": "0121300", "name": "苫小牧市", "lon": "141.605372", "lat": "42.634302" } },
{"model": "jma.AreaInformationCity", "pk": 145, "fields": { "code": "0123000", "name": "登別市", "lon": "141.106632", "lat": "42.412760" } },
{"model": "jma.AreaInformationCity", "pk": 146, "fields": { "code": "0157800", "name": "白老町", "lon": "142.635308", "lat": "44.302503" } },
{"model": "jma.AreaInformationCity", "pk": 147, "fields": { "code": "0158100", "name": "厚真町", "lon": "141.877935", "lat": "42.723662" } },
{"model": "jma.AreaInformationCity", "pk": 148, "fields": { "code": "0158500", "name": "安平町", "lon": "142.071438", "lat": "44.811346" } },
{"model": "jma.AreaInformationCity", "pk": 149, "fields": { "code": "0158600", "name": "むかわ町", "lon": "142.071438", "lat": "44.811346" } },
{"model": "jma.AreaInformationCity", "pk": 150, "fields": { "code": "0160100", "name": "日高地方日高町", "lon": "142.071438", "lat": "44.811346" } },
{"model": "jma.AreaInformationCity", "pk": 151, "fields": { "code": "0160200", "name": "平取町", "lon": "142.071438", "lat": "44.811346" } },
{"model": "jma.AreaInformationCity", "pk": 152, "fields": { "code": "0160400", "name": "新冠町", "lon": "142.071438", "lat": "44.811346" } },
{"model": "jma.AreaInformationCity", "pk": 153, "fields": { "code": "0161000", "name": "新ひだか町", "lon": "142.071438", "lat": "44.811346" } },
{"model": "jma.AreaInformationCity", "pk": 154, "fields": { "code": "0160700", "name": "浦河町", "lon": "142.071438", "lat": "44.811346" } },
{"model": "jma.AreaInformationCity", "pk": 155, "fields": { "code": "0160800", "name": "様似町", "lon": "142.071438", "lat": "44.811346" } },
{"model": "jma.AreaInformationCity", "pk": 156, "fields": { "code": "0160900", "name": "えりも町", "lon": "142.071438", "lat": "44.811346" } },
{"model": "jma.AreaInformationCity", "pk": 157, "fields": { "code": "0163300", "name": "上士幌町", "lon": "142.071438", "lat": "44.811346" } },
{"model": "jma.AreaInformationCity", "pk": 158, "fields": { "code": "0163400", "name": "鹿追町", "lon": "142.071438", "lat": "44.811346" } },
{"model": "jma.AreaInformationCity", "pk": 159, "fields": { "code": "0163500", "name": "新得町", "lon": "142.071438", "lat": "44.811346" } },
{"model": "jma.AreaInformationCity", "pk": 160, "fields": { "code": "0164700", "name": "足寄町", "lon": "143.553905", "lat": "43.244801" } },
{"model": "jma.AreaInformationCity", "pk": 161, "fields": { "code": "0164800", "name": "陸別町", "lon": "143.747243", "lat": "43.468981" } },
{"model": "jma.AreaInformationCity", "pk": 162, "fields": { "code": "0120700", "name": "帯広市", "lon": "143.196103", "lat": "42.923899" } },
{"model": "jma.AreaInformationCity", "pk": 163, "fields": { "code": "0163100", "name": "音更町", "lon": "142.071438", "lat": "44.811346" } },
{"model": "jma.AreaInformationCity", "pk": 164, "fields": { "code": "0163200", "name": "士幌町", "lon": "142.071438", "lat": "44.811346" } },
{"model": "jma.AreaInformationCity", "pk": 165, "fields": { "code": "0163600", "name": "十勝清水町", "lon": "142.071438", "lat": "44.811346" } },
{"model": "jma.AreaInformationCity", "pk": 166, "fields": { "code": "0163700", "name": "芽室町", "lon": "142.071438", "lat": "44.811346" } },
{"model": "jma.AreaInformationCity", "pk": 167, "fields": { "code": "0164300", "name": "幕別町", "lon": "143.355969", "lat": "42.908234" } },
{"model": "jma.AreaInformationCity", "pk": 168, "fields": { "code": "0164400", "name": "十勝池田町", "lon": "143.448355", "lat": "42.928955" } },
{"model": "jma.AreaInformationCity", "pk": 169, "fields": { "code": "0164500", "name": "豊頃町", "lon": "143.505919", "lat": "42.801052" } },
{"model": "jma.AreaInformationCity", "pk": 170, "fields": { "code": "0164600", "name": "本別町", "lon": "143.311496", "lat": "42.285838" } },
{"model": "jma.AreaInformationCity", "pk": 171, "fields": { "code": "0164900", "name": "浦幌町", "lon": "143.658396", "lat": "42.808927" } },
{"model": "jma.AreaInformationCity", "pk": 172, "fields": { "code": "0163800", "name": "中札内村", "lon": "142.071438", "lat": "44.811346" } },
{"model": "jma.AreaInformationCity", "pk": 173, "fields": { "code": "0163900", "name": "更別村", "lon": "142.071438", "lat": "44.811346" } },
{"model": "jma.AreaInformationCity", "pk": 174, "fields": { "code": "0164100", "name": "十勝大樹町", "lon": "142.071438", "lat": "44.811346" } },
{"model": "jma.AreaInformationCity", "pk": 175, "fields": { "code": "0164200", "name": "広尾町", "lon": "142.071438", "lat": "44.811346" } },
{"model": "jma.AreaInformationCity", "pk": 176, "fields": { "code": "0166500", "name": "弟子屈町", "lon": "144.459221", "lat": "43.485348" } },
{"model": "jma.AreaInformationCity", "pk": 177, "fields": { "code": "0120600", "name": "釧路市", "lon": "144.381356", "lat": "42.984854" } },
{"model": "jma.AreaInformationCity", "pk": 178, "fields": { "code": "0166100", "name": "釧路町", "lon": "144.466032", "lat": "42.996045" } },
{"model": "jma.AreaInformationCity", "pk": 179, "fields": { "code": "0166200", "name": "厚岸町", "lon": "144.847360", "lat": "43.051871" } },
{"model": "jma.AreaInformationCity", "pk": 180, "fields": { "code": "0166300", "name": "浜中町", "lon": "145.129369", "lat": "43.077145" } },
{"model": "jma.AreaInformationCity", "pk": 181, "fields": { "code": "0166400", "name": "標茶町", "lon": "144.600779", "lat": "43.303440" } },
{"model": "jma.AreaInformationCity", "pk": 182, "fields": { "code": "0166700", "name": "鶴居村", "lon": "144.321216", "lat": "43.229887" } },
{"model": "jma.AreaInformationCity", "pk": 183, "fields": { "code": "0166800", "name": "白糠町", "lon": "144.071805", "lat": "42.956177" } },
{"model": "jma.AreaInformationCity", "pk": 184, "fields": { "code": "0169200", "name": "中標津町", "lon": "144.971391", "lat": "43.555242" } },
{"model": "jma.AreaInformationCity", "pk": 185, "fields": { "code": "0169300", "name": "標津町", "lon": "145.131319", "lat": "43.661387" } },
{"model": "jma.AreaInformationCity", "pk": 186, "fields": { "code": "0169400", "name": "羅臼町", "lon": "145.189620", "lat": "44.021876" } },
{"model": "jma.AreaInformationCity", "pk": 187, "fields": { "code": "0169100", "name": "別海町", "lon": "145.117271", "lat": "43.393787" } },
{"model": "jma.AreaInformationCity", "pk": 188, "fields": { "code": "0122300", "name": "根室市", "lon": "145.582790", "lat": "43.330076" } },
{"model": "jma.AreaInformationCity", "pk": 189, "fields": { "code": "0220100", "name": "青森市", "lon": "140.747365", "lat": "40.822072" } },
{"model": "jma.AreaInformationCity", "pk": 190, "fields": { "code": "0220500", "name": "五所川原市", "lon": "140.440090", "lat": "40.808002" } },
{"model": "jma.AreaInformationCity", "pk": 191, "fields": { "code": "0220900", "name": "つがる市", "lon": "140.380059", "lat": "40.808639" } },
{"model": "jma.AreaInformationCity", "pk": 192, "fields": { "code": "0230100", "name": "平内町", "lon": "140.955920", "lat": "40.926031" } },
{"model": "jma.AreaInformationCity", "pk": 193, "fields": { "code": "0230300", "name": "今別町", "lon": "140.481654", "lat": "41.181757" } },
{"model": "jma.AreaInformationCity", "pk": 194, "fields": { "code": "0230400", "name": "蓬田村", "lon": "140.655966", "lat": "40.971714" } },
{"model": "jma.AreaInformationCity", "pk": 195, "fields": { "code": "0230700", "name": "外ヶ浜町", "lon": "140.632296", "lat": "41.043159" } },
{"model": "jma.AreaInformationCity", "pk": 196, "fields": { "code": "0238100", "name": "板柳町", "lon": "140.457324", "lat": "40.695894" } },
{"model": "jma.AreaInformationCity", "pk": 197, "fields": { "code": "0238400", "name": "鶴田町", "lon": "140.428382", "lat": "40.758605" } },
{"model": "jma.AreaInformationCity", "pk": 198, "fields": { "code": "0238700", "name": "中泊町", "lon": "140.439840", "lat": "40.965179" } },
{"model": "jma.AreaInformationCity", "pk": 199, "fields": { "code": "0220200", "name": "弘前市", "lon": "140.463922", "lat": "40.603124" } },
{"model": "jma.AreaInformationCity", "pk": 200, "fields": { "code": "0220400", "name": "黒石市", "lon": "140.594645", "lat": "40.642632" } },
{"model": "jma.AreaInformationCity", "pk": 201, "fields": { "code": "0221000", "name": "平川市", "lon": "140.566478", "lat": "40.584011" } },
{"model": "jma.AreaInformationCity", "pk": 202, "fields": { "code": "0232100", "name": "鰺ヶ沢町", "lon": "140.208695", "lat": "40.779913" } },
{"model": "jma.AreaInformationCity", "pk": 203, "fields": { "code": "0232300", "name": "深浦町", "lon": "139.927375", "lat": "40.647895" } },
{"model": "jma.AreaInformationCity", "pk": 204, "fields": { "code": "0234300", "name": "西目屋村", "lon": "140.296288", "lat": "40.576709" } },
{"model": "jma.AreaInformationCity", "pk": 205, "fields": { "code": "0236100", "name": "藤崎町", "lon": "140.502811", "lat": "40.656069" } },
{"model": "jma.AreaInformationCity", "pk": 206, "fields": { "code": "0236200", "name": "大鰐町", "lon": "140.567828", "lat": "40.518188" } },
{"model": "jma.AreaInformationCity", "pk": 207, "fields": { "code": "0236700", "name": "田舎館村", "lon": "140.550116", "lat": "40.631252" } },
{"model": "jma.AreaInformationCity", "pk": 208, "fields": { "code": "0220300", "name": "八戸市", "lon": "141.488399", "lat": "40.512284" } },
{"model": "jma.AreaInformationCity", "pk": 209, "fields": { "code": "0220600", "name": "十和田市", "lon": "141.205908", "lat": "40.612703" } },
{"model": "jma.AreaInformationCity", "pk": 210, "fields": { "code": "0220700", "name": "三沢市", "lon": "141.368976", "lat": "40.683134" } },
{"model": "jma.AreaInformationCity", "pk": 211, "fields": { "code": "0240100", "name": "野辺地町", "lon": "141.128757", "lat": "40.864469" } },
{"model": "jma.AreaInformationCity", "pk": 212, "fields": { "code": "0240200", "name": "七戸町", "lon": "141.151021", "lat": "40.697416" } },
{"model": "jma.AreaInformationCity", "pk": 213, "fields": { "code": "0240500", "name": "六戸町", "lon": "141.324949", "lat": "40.609521" } },
{"model": "jma.AreaInformationCity", "pk": 214, "fields": { "code": "0240600", "name": "横浜町", "lon": "141.247793", "lat": "41.083147" } },
{"model": "jma.AreaInformationCity", "pk": 215, "fields": { "code": "0240800", "name": "東北町", "lon": "141.257882", "lat": "40.727876" } },
{"model": "jma.AreaInformationCity", "pk": 216, "fields": { "code": "0241100", "name": "六ヶ所村", "lon": "141.374552", "lat": "40.967344" } },
{"model": "jma.AreaInformationCity", "pk": 217, "fields": { "code": "0241200", "name": "おいらせ町", "lon": "141.397797", "lat": "40.599107" } },
{"model": "jma.AreaInformationCity", "pk": 218, "fields": { "code": "0244100", "name": "三戸町", "lon": "141.258745", "lat": "40.378407" } },
{"model": "jma.AreaInformationCity", "pk": 219, "fields": { "code": "0244200", "name": "五戸町", "lon": "141.307790", "lat": "40.531225" } },
{"model": "jma.AreaInformationCity", "pk": 220, "fields": { "code": "0244300", "name": "田子町", "lon": "141.152050", "lat": "40.339962" } },
{"model": "jma.AreaInformationCity", "pk": 221, "fields": { "code": "0244500", "name": "青森南部町", "lon": "141.381986", "lat": "40.466593" } },
{"model": "jma.AreaInformationCity", "pk": 222, "fields": { "code": "0244600", "name": "階上町", "lon": "141.620851", "lat": "40.452489" } },
{"model": "jma.AreaInformationCity", "pk": 223, "fields": { "code": "0245000", "name": "新郷村", "lon": "141.173464", "lat": "40.465626" } },
{"model": "jma.AreaInformationCity", "pk": 224, "fields": { "code": "0220800", "name": "むつ市", "lon": "141.183476", "lat": "41.292746" } },
{"model": "jma.AreaInformationCity", "pk": 225, "fields": { "code": "0242300", "name": "大間町", "lon": "140.907438", "lat": "41.526771" } },
{"model": "jma.AreaInformationCity", "pk": 226, "fields": { "code": "0242400", "name": "東通村", "lon": "141.328936", "lat": "41.277787" } },
{"model": "jma.AreaInformationCity", "pk": 227, "fields": { "code": "0242500", "name": "風間浦村", "lon": "140.995729", "lat": "41.487574" } },
{"model": "jma.AreaInformationCity", "pk": 228, "fields": { "code": "0242600", "name": "佐井村", "lon": "140.859129", "lat": "41.429706" } },
{"model": "jma.AreaInformationCity", "pk": 229, "fields": { "code": "0320200", "name": "宮古市", "lon": "141.957140", "lat": "39.641420" } },
{"model": "jma.AreaInformationCity", "pk": 230, "fields": { "code": "0320700", "name": "久慈市", "lon": "141.775583", "lat": "40.190524" } },
{"model": "jma.AreaInformationCity", "pk": 231, "fields": { "code": "0348200", "name": "山田町", "lon": "141.948950", "lat": "39.467662" } },
{"model": "jma.AreaInformationCity", "pk": 232, "fields": { "code": "0348300", "name": "岩泉町", "lon": "141.796303", "lat": "39.843042" } },
{"model": "jma.AreaInformationCity", "pk": 233, "fields": { "code": "0348400", "name": "田野畑村", "lon": "141.888868", "lat": "39.930450" } },
{"model": "jma.AreaInformationCity", "pk": 234, "fields": { "code": "0348500", "name": "普代村", "lon": "141.885908", "lat": "40.005167" } },
{"model": "jma.AreaInformationCity", "pk": 235, "fields": { "code": "0350300", "name": "野田村", "lon": "141.817668", "lat": "40.110266" } },
{"model": "jma.AreaInformationCity", "pk": 236, "fields": { "code": "0350700", "name": "岩手洋野町", "lon": "141.624833", "lat": "40.284263" } },
{"model": "jma.AreaInformationCity", "pk": 237, "fields": { "code": "0320300", "name": "大船渡市", "lon": "141.708530", "lat": "39.081901" } },
{"model": "jma.AreaInformationCity", "pk": 238, "fields": { "code": "0321000", "name": "陸前高田市", "lon": "141.625495", "lat": "39.027661" } },
{"model": "jma.AreaInformationCity", "pk": 239, "fields": { "code": "0321100", "name": "釜石市", "lon": "141.885677", "lat": "39.275818" } },
{"model": "jma.AreaInformationCity", "pk": 240, "fields": { "code": "0344100", "name": "住田町", "lon": "141.575047", "lat": "39.142230" } },
{"model": "jma.AreaInformationCity", "pk": 241, "fields": { "code": "0346100", "name": "大槌町", "lon": "141.899422", "lat": "39.358231" } },
{"model": "jma.AreaInformationCity", "pk": 242, "fields": { "code": "0320100", "name": "盛岡市", "lon": "141.154484", "lat": "39.702053" } },
{"model": "jma.AreaInformationCity", "pk": 243, "fields": { "code": "0321300", "name": "二戸市", "lon": "141.304817", "lat": "40.271213" } },
{"model": "jma.AreaInformationCity", "pk": 244, "fields": { "code": "0321400", "name": "八幡平市", "lon": "141.071292", "lat": "39.956477" } },
{"model": "jma.AreaInformationCity", "pk": 245, "fields": { "code": "0321600", "name": "滝沢市", "lon": "141.077095", "lat": "39.734684" } },
{"model": "jma.AreaInformationCity", "pk": 246, "fields": { "code": "0330100", "name": "雫石町", "lon": "140.975776", "lat": "39.696288" } },
{"model": "jma.AreaInformationCity", "pk": 247, "fields": { "code": "0330200", "name": "葛巻町", "lon": "141.436465", "lat": "40.039896" } },
{"model": "jma.AreaInformationCity", "pk": 248, "fields": { "code": "0330300", "name": "岩手町", "lon": "141.212516", "lat": "39.972590" } },
{"model": "jma.AreaInformationCity", "pk": 249, "fields": { "code": "0332100", "name": "紫波町", "lon": "141.155659", "lat": "39.554568" } },
{"model": "jma.AreaInformationCity", "pk": 250, "fields": { "code": "0332200", "name": "矢巾町", "lon": "141.142889", "lat": "39.605981" } },
{"model": "jma.AreaInformationCity", "pk": 251, "fields": { "code": "0350100", "name": "軽米町", "lon": "141.460633", "lat": "40.326746" } },
{"model": "jma.AreaInformationCity", "pk": 252, "fields": { "code": "0350600", "name": "九戸村", "lon": "141.418985", "lat": "40.211392" } },
{"model": "jma.AreaInformationCity", "pk": 253, "fields": { "code": "0352400", "name": "一戸町", "lon": "141.295475", "lat": "40.213011" } },
{"model": "jma.AreaInformationCity", "pk": 254, "fields": { "code": "0320500", "name": "花巻市", "lon": "141.116645", "lat": "39.388578" } },
{"model": "jma.AreaInformationCity", "pk": 255, "fields": { "code": "0320600", "name": "北上市", "lon": "141.113191", "lat": "39.286765" } },
{"model": "jma.AreaInformationCity", "pk": 256, "fields": { "code": "0320800", "name": "遠野市", "lon": "141.533303", "lat": "39.327838" } },
{"model": "jma.AreaInformationCity", "pk": 257, "fields": { "code": "0320900", "name": "一関市", "lon": "141.126800", "lat": "38.934682" } },
{"model": "jma.AreaInformationCity", "pk": 258, "fields": { "code": "0321500", "name": "奥州市", "lon": "141.139141", "lat": "39.144529" } },
{"model": "jma.AreaInformationCity", "pk": 259, "fields": { "code": "0336600", "name": "西和賀町", "lon": "140.750124", "lat": "39.434621" } },
{"model": "jma.AreaInformationCity", "pk": 260, "fields": { "code": "0338100", "name": "金ケ崎町", "lon": "141.116324", "lat": "39.195742" } },
{"model": "jma.AreaInformationCity", "pk": 261, "fields": { "code": "0340200", "name": "平泉町", "lon": "141.113822", "lat": "38.986662" } },
{"model": "jma.AreaInformationCity", "pk": 262, "fields": { "code": "0420500", "name": "気仙沼市", "lon": "141.569992", "lat": "38.908078" } },
{"model": "jma.AreaInformationCity", "pk": 263, "fields": { "code": "0421200", "name": "登米市", "lon": "141.187579", "lat": "38.691923" } },
{"model": "jma.AreaInformationCity", "pk": 264, "fields": { "code": "0421300", "name": "栗原市", "lon": "141.021333", "lat": "38.730128" } },
{"model": "jma.AreaInformationCity", "pk": 265, "fields": { "code": "0421500", "name": "大崎市", "lon": "140.955350", "lat": "38.577071" } },
{"model": "jma.AreaInformationCity", "pk": 266, "fields": { "code": "0444400", "name": "色麻町", "lon": "140.849878", "lat": "38.548920" } },
{"model": "jma.AreaInformationCity", "pk": 267, "fields": { "code": "0444500", "name": "宮城加美町", "lon": "140.854751", "lat": "38.571767" } },
{"model": "jma.AreaInformationCity", "pk": 268, "fields": { "code": "0450100", "name": "涌谷町", "lon": "141.128075", "lat": "38.539646" } },
{"model": "jma.AreaInformationCity", "pk": 269, "fields": { "code": "0450500", "name": "宮城美里町", "lon": "141.056695", "lat": "38.544391" } },
{"model": "jma.AreaInformationCity", "pk": 270, "fields": { "code": "0460600", "name": "南三陸町", "lon": "141.460514", "lat": "38.679771" } },
{"model": "jma.AreaInformationCity", "pk": 271, "fields": { "code": "0420600", "name": "白石市", "lon": "140.619860", "lat": "38.002478" } },
{"model": "jma.AreaInformationCity", "pk": 272, "fields": { "code": "0420700", "name": "名取市", "lon": "140.891913", "lat": "38.171520" } },
{"model": "jma.AreaInformationCity", "pk": 273, "fields": { "code": "0420800", "name": "角田市", "lon": "140.781990", "lat": "37.977063" } },
{"model": "jma.AreaInformationCity", "pk": 274, "fields": { "code": "0421100", "name": "岩沼市", "lon": "140.870138", "lat": "38.104292" } },
{"model": "jma.AreaInformationCity", "pk": 275, "fields": { "code": "0430100", "name": "蔵王町", "lon": "140.658416", "lat": "38.098164" } },
{"model": "jma.AreaInformationCity", "pk": 276, "fields": { "code": "0430200", "name": "七ヶ宿町", "lon": "140.441612", "lat": "37.993063" } },
{"model": "jma.AreaInformationCity", "pk": 277, "fields": { "code": "0432100", "name": "大河原町", "lon": "140.730721", "lat": "38.049493" } },
{"model": "jma.AreaInformationCity", "pk": 278, "fields": { "code": "0432200", "name": "村田町", "lon": "140.722404", "lat": "38.118539" } },
{"model": "jma.AreaInformationCity", "pk": 279, "fields": { "code": "0432300", "name": "柴田町", "lon": "140.765790", "lat": "38.056563" } },
{"model": "jma.AreaInformationCity", "pk": 280, "fields": { "code": "0432400", "name": "宮城川崎町", "lon": "140.643202", "lat": "38.177737" } },
{"model": "jma.AreaInformationCity", "pk": 281, "fields": { "code": "0434100", "name": "丸森町", "lon": "140.765528", "lat": "37.911429" } },
{"model": "jma.AreaInformationCity", "pk": 282, "fields": { "code": "0436100", "name": "亘理町", "lon": "140.852581", "lat": "38.037460" } },
{"model": "jma.AreaInformationCity", "pk": 283, "fields": { "code": "0436200", "name": "山元町", "lon": "140.877818", "lat": "37.961668" } },
{"model": "jma.AreaInformationCity", "pk": 284, "fields": { "code": "0410100", "name": "仙台青葉区", "lon": "140.870403", "lat": "38.269076" } },
{"model": "jma.AreaInformationCity", "pk": 285, "fields": { "code": "0410200", "name": "仙台宮城野区", "lon": "140.909832", "lat": "38.266139" } },
{"model": "jma.AreaInformationCity", "pk": 286, "fields": { "code": "0410300", "name": "仙台若林区", "lon": "140.900756", "lat": "38.244224" } },
{"model": "jma.AreaInformationCity", "pk": 287, "fields": { "code": "0410400", "name": "仙台太白区", "lon": "140.877134", "lat": "38.224348" } },
{"model": "jma.AreaInformationCity", "pk": 288, "fields": { "code": "0410500", "name": "仙台泉区", "lon": "140.881629", "lat": "38.326375" } },
{"model": "jma.AreaInformationCity", "pk": 289, "fields": { "code": "0420200", "name": "石巻市", "lon": "141.302917", "lat": "38.434480" } },
{"model": "jma.AreaInformationCity", "pk": 290, "fields": { "code": "0420300", "name": "塩竈市", "lon": "141.022027", "lat": "38.314362" } },
{"model": "jma.AreaInformationCity", "pk": 291, "fields": { "code": "0420900", "name": "多賀城市", "lon": "141.004225", "lat": "38.293839" } },
{"model": "jma.AreaInformationCity", "pk": 292, "fields": { "code": "0421400", "name": "東松島市", "lon": "141.210242", "lat": "38.426168" } },
{"model": "jma.AreaInformationCity", "pk": 293, "fields": { "code": "0421600", "name": "富谷市", "lon": "140.955350", "lat": "38.577071" } },
{"model": "jma.AreaInformationCity", "pk": 294, "fields": { "code": "0440100", "name": "松島町", "lon": "141.067244", "lat": "38.380128" } },
{"model": "jma.AreaInformationCity", "pk": 295, "fields": { "code": "0440400", "name": "七ヶ浜町", "lon": "141.059186", "lat": "38.304613" } },
{"model": "jma.AreaInformationCity", "pk": 296, "fields": { "code": "0440600", "name": "利府町", "lon": "140.975722", "lat": "38.330190" } },
{"model": "jma.AreaInformationCity", "pk": 297, "fields": { "code": "0442100", "name": "大和町", "lon": "140.886306", "lat": "38.437329" } },
{"model": "jma.AreaInformationCity", "pk": 298, "fields": { "code": "0442200", "name": "大郷町", "lon": "141.004445", "lat": "38.424260" } },
{"model": "jma.AreaInformationCity", "pk": 299, "fields": { "code": "0442400", "name": "大衡村", "lon": "140.880087", "lat": "38.467226" } },
{"model": "jma.AreaInformationCity", "pk": 300, "fields": { "code": "0458100", "name": "女川町", "lon": "141.443088", "lat": "38.449733" } },
{"model": "jma.AreaInformationCity", "pk": 301, "fields": { "code": "0520200", "name": "能代市", "lon": "140.026624", "lat": "40.212151" } },
{"model": "jma.AreaInformationCity", "pk": 302, "fields": { "code": "0520600", "name": "男鹿市", "lon": "139.847558", "lat": "39.886818" } },
{"model": "jma.AreaInformationCity", "pk": 303, "fields": { "code": "0521100", "name": "潟上市", "lon": "140.013054", "lat": "39.857288" } },
{"model": "jma.AreaInformationCity", "pk": 304, "fields": { "code": "0534600", "name": "藤里町", "lon": "140.261704", "lat": "40.278360" } },
{"model": "jma.AreaInformationCity", "pk": 305, "fields": { "code": "0534800", "name": "三種町", "lon": "140.004748", "lat": "40.101626" } },
{"model": "jma.AreaInformationCity", "pk": 306, "fields": { "code": "0534900", "name": "八峰町", "lon": "140.038648", "lat": "40.318724" } },
{"model": "jma.AreaInformationCity", "pk": 307, "fields": { "code": "0536100", "name": "五城目町", "lon": "140.111306", "lat": "39.943892" } },
{"model": "jma.AreaInformationCity", "pk": 308, "fields": { "code": "0536300", "name": "八郎潟町", "lon": "140.073318", "lat": "39.949382" } },
{"model": "jma.AreaInformationCity", "pk": 309, "fields": { "code": "0536600", "name": "井川町", "lon": "140.081294", "lat": "39.914169" } },
{"model": "jma.AreaInformationCity", "pk": 310, "fields": { "code": "0536800", "name": "大潟村", "lon": "139.960067", "lat": "40.017792" } },
{"model": "jma.AreaInformationCity", "pk": 311, "fields": { "code": "0520100", "name": "秋田市", "lon": "140.102564", "lat": "39.720008" } },
{"model": "jma.AreaInformationCity", "pk": 312, "fields": { "code": "0521000", "name": "由利本荘市", "lon": "140.048791", "lat": "39.385877" } },
{"model": "jma.AreaInformationCity", "pk": 313, "fields": { "code": "0521400", "name": "にかほ市", "lon": "139.907713", "lat": "39.203012" } },
{"model": "jma.AreaInformationCity", "pk": 314, "fields": { "code": "0520400", "name": "大館市", "lon": "140.564285", "lat": "40.271405" } },
{"model": "jma.AreaInformationCity", "pk": 315, "fields": { "code": "0520900", "name": "鹿角市", "lon": "140.788436", "lat": "40.215778" } },
{"model": "jma.AreaInformationCity", "pk": 316, "fields": { "code": "0521300", "name": "北秋田市", "lon": "140.370742", "lat": "40.226054" } },
{"model": "jma.AreaInformationCity", "pk": 317, "fields": { "code": "0530300", "name": "小坂町", "lon": "140.736081", "lat": "40.333092" } },
{"model": "jma.AreaInformationCity", "pk": 318, "fields": { "code": "0532700", "name": "上小阿仁村", "lon": "140.295767", "lat": "40.063266" } },
{"model": "jma.AreaInformationCity", "pk": 319, "fields": { "code": "0520300", "name": "横手市", "lon": "140.566649", "lat": "39.313782" } },
{"model": "jma.AreaInformationCity", "pk": 320, "fields": { "code": "0520700", "name": "湯沢市", "lon": "140.495663", "lat": "39.164304" } },
{"model": "jma.AreaInformationCity", "pk": 321, "fields": { "code": "0521200", "name": "大仙市", "lon": "140.475448", "lat": "39.453088" } },
{"model": "jma.AreaInformationCity", "pk": 322, "fields": { "code": "0521500", "name": "仙北市", "lon": "140.730588", "lat": "39.700069" } },
{"model": "jma.AreaInformationCity", "pk": 323, "fields": { "code": "0543400", "name": "秋田美郷町", "lon": "140.581299", "lat": "39.461905" } },
{"model": "jma.AreaInformationCity", "pk": 324, "fields": { "code": "0546300", "name": "羽後町", "lon": "140.412923", "lat": "39.199323" } },
{"model": "jma.AreaInformationCity", "pk": 325, "fields": { "code": "0546400", "name": "東成瀬村", "lon": "140.648890", "lat": "39.179183" } },
{"model": "jma.AreaInformationCity", "pk": 326, "fields": { "code": "0620300", "name": "鶴岡市", "lon": "139.826731", "lat": "38.727197" } },
{"model": "jma.AreaInformationCity", "pk": 327, "fields": { "code": "0620400", "name": "酒田市", "lon": "139.836515", "lat": "38.914433" } },
{"model": "jma.AreaInformationCity", "pk": 328, "fields": { "code": "0642600", "name": "三川町", "lon": "139.849696", "lat": "38.794487" } },
{"model": "jma.AreaInformationCity", "pk": 329, "fields": { "code": "0642800", "name": "庄内町", "lon": "139.904745", "lat": "38.849915" } },
{"model": "jma.AreaInformationCity", "pk": 330, "fields": { "code": "0646100", "name": "遊佐町", "lon": "139.907352", "lat": "39.014616" } },
{"model": "jma.AreaInformationCity", "pk": 331, "fields": { "code": "0620500", "name": "新庄市", "lon": "140.301608", "lat": "38.765015" } },
{"model": "jma.AreaInformationCity", "pk": 332, "fields": { "code": "0636100", "name": "山形金山町", "lon": "140.339456", "lat": "38.883357" } },
{"model": "jma.AreaInformationCity", "pk": 333, "fields": { "code": "0636200", "name": "最上町", "lon": "140.519354", "lat": "38.758387" } },
{"model": "jma.AreaInformationCity", "pk": 334, "fields": { "code": "0636300", "name": "舟形町", "lon": "140.319776", "lat": "38.691444" } },
{"model": "jma.AreaInformationCity", "pk": 335, "fields": { "code": "0636400", "name": "真室川町", "lon": "140.252301", "lat": "38.857859" } },
{"model": "jma.AreaInformationCity", "pk": 336, "fields": { "code": "0636500", "name": "大蔵村", "lon": "140.230374", "lat": "38.704182" } },
{"model": "jma.AreaInformationCity", "pk": 337, "fields": { "code": "0636600", "name": "鮭川村", "lon": "140.222052", "lat": "38.796457" } },
{"model": "jma.AreaInformationCity", "pk": 338, "fields": { "code": "0636700", "name": "戸沢村", "lon": "140.143804", "lat": "38.737473" } },
{"model": "jma.AreaInformationCity", "pk": 339, "fields": { "code": "0620100", "name": "山形市", "lon": "140.339602", "lat": "38.255439" } },
{"model": "jma.AreaInformationCity", "pk": 340, "fields": { "code": "0620600", "name": "寒河江市", "lon": "140.275967", "lat": "38.380964" } },
{"model": "jma.AreaInformationCity", "pk": 341, "fields": { "code": "0620700", "name": "上山市", "lon": "140.267827", "lat": "38.149562" } },
{"model": "jma.AreaInformationCity", "pk": 342, "fields": { "code": "0620800", "name": "村山市", "lon": "140.380372", "lat": "38.483344" } },
{"model": "jma.AreaInformationCity", "pk": 343, "fields": { "code": "0621000", "name": "天童市", "lon": "140.377886", "lat": "38.362265" } },
{"model": "jma.AreaInformationCity", "pk": 344, "fields": { "code": "0621100", "name": "東根市", "lon": "140.391090", "lat": "38.431354" } },
{"model": "jma.AreaInformationCity", "pk": 345, "fields": { "code": "0621200", "name": "尾花沢市", "lon": "140.405691", "lat": "38.600622" } },
{"model": "jma.AreaInformationCity", "pk": 346, "fields": { "code": "0630100", "name": "山辺町", "lon": "140.262178", "lat": "38.289114" } },
{"model": "jma.AreaInformationCity", "pk": 347, "fields": { "code": "0630200", "name": "中山町", "lon": "140.283034", "lat": "38.333114" } },
{"model": "jma.AreaInformationCity", "pk": 348, "fields": { "code": "0632100", "name": "河北町", "lon": "140.314284", "lat": "38.426271" } },
{"model": "jma.AreaInformationCity", "pk": 349, "fields": { "code": "0632200", "name": "西川町", "lon": "140.147347", "lat": "38.426499" } },
{"model": "jma.AreaInformationCity", "pk": 350, "fields": { "code": "0632300", "name": "山形朝日町", "lon": "140.145926", "lat": "38.299248" } },
{"model": "jma.AreaInformationCity", "pk": 351, "fields": { "code": "0632400", "name": "大江町", "lon": "140.207013", "lat": "38.380648" } },
{"model": "jma.AreaInformationCity", "pk": 352, "fields": { "code": "0634100", "name": "大石田町", "lon": "140.372680", "lat": "38.593863" } },
{"model": "jma.AreaInformationCity", "pk": 353, "fields": { "code": "0620200", "name": "米沢市", "lon": "140.116781", "lat": "37.922240" } },
{"model": "jma.AreaInformationCity", "pk": 354, "fields": { "code": "0620900", "name": "長井市", "lon": "140.040524", "lat": "38.107494" } },
{"model": "jma.AreaInformationCity", "pk": 355, "fields": { "code": "0621300", "name": "南陽市", "lon": "140.148375", "lat": "38.055141" } },
{"model": "jma.AreaInformationCity", "pk": 356, "fields": { "code": "0638100", "name": "高畠町", "lon": "140.189160", "lat": "38.002736" } },
{"model": "jma.AreaInformationCity", "pk": 357, "fields": { "code": "0638200", "name": "山形川西町", "lon": "140.045790", "lat": "38.004479" } },
{"model": "jma.AreaInformationCity", "pk": 358, "fields": { "code": "0640100", "name": "山形小国町", "lon": "139.743364", "lat": "38.061627" } },
{"model": "jma.AreaInformationCity", "pk": 359, "fields": { "code": "0640200", "name": "白鷹町", "lon": "140.098438", "lat": "38.183095" } },
{"model": "jma.AreaInformationCity", "pk": 360, "fields": { "code": "0640300", "name": "飯豊町", "lon": "139.987529", "lat": "38.045827" } },
{"model": "jma.AreaInformationCity", "pk": 361, "fields": { "code": "0720100", "name": "福島市", "lon": "140.474728", "lat": "37.760834" } },
{"model": "jma.AreaInformationCity", "pk": 362, "fields": { "code": "0720300", "name": "郡山市", "lon": "140.359742", "lat": "37.400529" } },
{"model": "jma.AreaInformationCity", "pk": 363, "fields": { "code": "0720500", "name": "白河市", "lon": "140.210943", "lat": "37.126362" } },
{"model": "jma.AreaInformationCity", "pk": 364, "fields": { "code": "0720700", "name": "須賀川市", "lon": "140.356975", "lat": "37.292893" } },
{"model": "jma.AreaInformationCity", "pk": 365, "fields": { "code": "0721000", "name": "二本松市", "lon": "140.431129", "lat": "37.584858" } },
{"model": "jma.AreaInformationCity", "pk": 366, "fields": { "code": "0721100", "name": "田村市", "lon": "140.576422", "lat": "37.440550" } },
{"model": "jma.AreaInformationCity", "pk": 367, "fields": { "code": "0721300", "name": "福島伊達市", "lon": "140.562908", "lat": "37.819138" } },
{"model": "jma.AreaInformationCity", "pk": 368, "fields": { "code": "0721400", "name": "本宮市", "lon": "140.393890", "lat": "37.513131" } },
{"model": "jma.AreaInformationCity", "pk": 369, "fields": { "code": "0730100", "name": "桑折町", "lon": "140.516352", "lat": "37.849537" } },
{"model": "jma.AreaInformationCity", "pk": 370, "fields": { "code": "0730300", "name": "国見町", "lon": "140.549185", "lat": "37.837000" } },
{"model": "jma.AreaInformationCity", "pk": 371, "fields": { "code": "0730800", "name": "川俣町", "lon": "140.597333", "lat": "37.663922" } },
{"model": "jma.AreaInformationCity", "pk": 372, "fields": { "code": "0732200", "name": "大玉村", "lon": "140.371189", "lat": "37.534392" } },
{"model": "jma.AreaInformationCity", "pk": 373, "fields": { "code": "0734200", "name": "鏡石町", "lon": "140.343408", "lat": "37.252830" } },
{"model": "jma.AreaInformationCity", "pk": 374, "fields": { "code": "0734400", "name": "天栄村", "lon": "140.247074", "lat": "37.255606" } },
{"model": "jma.AreaInformationCity", "pk": 375, "fields": { "code": "0746100", "name": "西郷村", "lon": "140.155364", "lat": "37.141696" } },
{"model": "jma.AreaInformationCity", "pk": 376, "fields": { "code": "0746400", "name": "泉崎村", "lon": "140.295252", "lat": "37.157052" } },
{"model": "jma.AreaInformationCity", "pk": 377, "fields": { "code": "0746500", "name": "中島村", "lon": "140.350204", "lat": "37.148757" } },
{"model": "jma.AreaInformationCity", "pk": 378, "fields": { "code": "0746600", "name": "矢吹町", "lon": "140.338608", "lat": "37.201278" } },
{"model": "jma.AreaInformationCity", "pk": 379, "fields": { "code": "0748100", "name": "棚倉町", "lon": "140.379648", "lat": "37.029905" } },
{"model": "jma.AreaInformationCity", "pk": 380, "fields": { "code": "0748200", "name": "矢祭町", "lon": "140.424783", "lat": "36.871403" } },
{"model": "jma.AreaInformationCity", "pk": 381, "fields": { "code": "0748300", "name": "塙町", "lon": "140.409573", "lat": "36.957437" } },
{"model": "jma.AreaInformationCity", "pk": 382, "fields": { "code": "0748400", "name": "鮫川村", "lon": "140.509669", "lat": "37.042327" } },
{"model": "jma.AreaInformationCity", "pk": 383, "fields": { "code": "0750100", "name": "石川町", "lon": "140.452351", "lat": "37.144330" } },
{"model": "jma.AreaInformationCity", "pk": 384, "fields": { "code": "0750200", "name": "玉川村", "lon": "140.409038", "lat": "37.210706" } },
{"model": "jma.AreaInformationCity", "pk": 385, "fields": { "code": "0750300", "name": "平田村", "lon": "140.575876", "lat": "37.221786" } },
{"model": "jma.AreaInformationCity", "pk": 386, "fields": { "code": "0750400", "name": "浅川町", "lon": "140.412809", "lat": "37.080995" } },
{"model": "jma.AreaInformationCity", "pk": 387, "fields": { "code": "0750500", "name": "古殿町", "lon": "140.555649", "lat": "37.089093" } },
{"model": "jma.AreaInformationCity", "pk": 388, "fields": { "code": "0752100", "name": "三春町", "lon": "140.492569", "lat": "37.441048" } },
{"model": "jma.AreaInformationCity", "pk": 389, "fields": { "code": "0752200", "name": "小野町", "lon": "140.626277", "lat": "37.286823" } },
{"model": "jma.AreaInformationCity", "pk": 390, "fields": { "code": "0720400", "name": "いわき市", "lon": "140.887682", "lat": "37.050420" } },
{"model": "jma.AreaInformationCity", "pk": 391, "fields": { "code": "0720900", "name": "相馬市", "lon": "140.919470", "lat": "37.796624" } },
{"model": "jma.AreaInformationCity", "pk": 392, "fields": { "code": "0721200", "name": "南相馬市", "lon": "140.957276", "lat": "37.642161" } },
{"model": "jma.AreaInformationCity", "pk": 393, "fields": { "code": "0754100", "name": "福島広野町", "lon": "140.994458", "lat": "37.214559" } },
{"model": "jma.AreaInformationCity", "pk": 394, "fields": { "code": "0754200", "name": "楢葉町", "lon": "140.993611", "lat": "37.282500" } },
{"model": "jma.AreaInformationCity", "pk": 395, "fields": { "code": "0754300", "name": "富岡町", "lon": "141.016944", "lat": "37.333056" } },
{"model": "jma.AreaInformationCity", "pk": 396, "fields": { "code": "0754400", "name": "川内村", "lon": "140.809345", "lat": "37.337691" } },
{"model": "jma.AreaInformationCity", "pk": 397, "fields": { "code": "0754500", "name": "大熊町", "lon": "140.983611", "lat": "37.404444" } },
{"model": "jma.AreaInformationCity", "pk": 398, "fields": { "code": "0754600", "name": "双葉町", "lon": "141.012500", "lat": "37.449167" } },
{"model": "jma.AreaInformationCity", "pk": 399, "fields": { "code": "0754700", "name": "浪江町", "lon": "141.000000", "lat": "37.483333" } },
{"model": "jma.AreaInformationCity", "pk": 400, "fields": { "code": "0754800", "name": "葛尾村", "lon": "140.764444", "lat": "37.503611" } },
{"model": "jma.AreaInformationCity", "pk": 401, "fields": { "code": "0756100", "name": "新地町", "lon": "140.919599", "lat": "37.876357" } },
{"model": "jma.AreaInformationCity", "pk": 402, "fields": { "code": "0756400", "name": "飯舘村", "lon": "140.735247", "lat": "37.679190" } },
{"model": "jma.AreaInformationCity", "pk": 403, "fields": { "code": "0720200", "name": "会津若松市", "lon": "139.929810", "lat": "37.494761" } },
{"model": "jma.AreaInformationCity", "pk": 404, "fields": { "code": "0720800", "name": "喜多方市", "lon": "139.874609", "lat": "37.651355" } },
{"model": "jma.AreaInformationCity", "pk": 405, "fields": { "code": "0736200", "name": "下郷町", "lon": "139.872128", "lat": "37.255580" } },
{"model": "jma.AreaInformationCity", "pk": 406, "fields": { "code": "0736400", "name": "檜枝岐村", "lon": "139.388945", "lat": "37.024146" } },
{"model": "jma.AreaInformationCity", "pk": 407, "fields": { "code": "0736700", "name": "只見町", "lon": "139.316091", "lat": "37.348801" } },
{"model": "jma.AreaInformationCity", "pk": 408, "fields": { "code": "0736800", "name": "南会津町", "lon": "139.773199", "lat": "37.200395" } },
{"model": "jma.AreaInformationCity", "pk": 409, "fields": { "code": "0740200", "name": "北塩原村", "lon": "139.937374", "lat": "37.655715" } },
{"model": "jma.AreaInformationCity", "pk": 410, "fields": { "code": "0740500", "name": "西会津町", "lon": "139.647495", "lat": "37.588798" } },
{"model": "jma.AreaInformationCity", "pk": 411, "fields": { "code": "0740700", "name": "磐梯町", "lon": "139.988780", "lat": "37.562115" } },
{"model": "jma.AreaInformationCity", "pk": 412, "fields": { "code": "0740800", "name": "猪苗代町", "lon": "140.104761", "lat": "37.557768" } },
{"model": "jma.AreaInformationCity", "pk": 413, "fields": { "code": "0742100", "name": "会津坂下町", "lon": "139.821643", "lat": "37.561481" } },
{"model": "jma.AreaInformationCity", "pk": 414, "fields": { "code": "0742200", "name": "湯川村", "lon": "139.886778", "lat": "37.565299" } },
{"model": "jma.AreaInformationCity", "pk": 415, "fields": { "code": "0742300", "name": "柳津町", "lon": "139.719542", "lat": "37.526160" } },
{"model": "jma.AreaInformationCity", "pk": 416, "fields": { "code": "0744400", "name": "三島町", "lon": "139.644447", "lat": "37.470369" } },
{"model": "jma.AreaInformationCity", "pk": 417, "fields": { "code": "0744500", "name": "福島金山町", "lon": "139.524298", "lat": "37.453851" } },
{"model": "jma.AreaInformationCity", "pk": 418, "fields": { "code": "0744600", "name": "福島昭和村", "lon": "139.610660", "lat": "37.335416" } },
{"model": "jma.AreaInformationCity", "pk": 419, "fields": { "code": "0744700", "name": "会津美里町", "lon": "139.841178", "lat": "37.459854" } },
{"model": "jma.AreaInformationCity", "pk": 420, "fields": { "code": "0820100", "name": "水戸市", "lon": "140.470996", "lat": "36.366503" } },
{"model": "jma.AreaInformationCity", "pk": 421, "fields": { "code": "0820200", "name": "日立市", "lon": "140.651469", "lat": "36.599154" } },
{"model": "jma.AreaInformationCity", "pk": 422, "fields": { "code": "0821200", "name": "常陸太田市", "lon": "140.530950", "lat": "36.538275" } },
{"model": "jma.AreaInformationCity", "pk": 423, "fields": { "code": "0821400", "name": "高萩市", "lon": "140.716688", "lat": "36.719147" } },
{"model": "jma.AreaInformationCity", "pk": 424, "fields": { "code": "0821500", "name": "北茨城市", "lon": "140.750979", "lat": "36.801911" } },
{"model": "jma.AreaInformationCity", "pk": 425, "fields": { "code": "0821600", "name": "笠間市", "lon": "140.304354", "lat": "36.345300" } },
{"model": "jma.AreaInformationCity", "pk": 426, "fields": { "code": "0822100", "name": "ひたちなか市", "lon": "140.534676", "lat": "36.396615" } },
{"model": "jma.AreaInformationCity", "pk": 427, "fields": { "code": "0822500", "name": "常陸大宮市", "lon": "140.410890", "lat": "36.542577" } },
{"model": "jma.AreaInformationCity", "pk": 428, "fields": { "code": "0822600", "name": "那珂市", "lon": "140.486854", "lat": "36.457469" } },
{"model": "jma.AreaInformationCity", "pk": 429, "fields": { "code": "0823600", "name": "小美玉市", "lon": "140.352576", "lat": "36.239345" } },
{"model": "jma.AreaInformationCity", "pk": 430, "fields": { "code": "0830200", "name": "茨城町", "lon": "140.424514", "lat": "36.286921" } },
{"model": "jma.AreaInformationCity", "pk": 431, "fields": { "code": "0830900", "name": "大洗町", "lon": "140.574974", "lat": "36.313443" } },
{"model": "jma.AreaInformationCity", "pk": 432, "fields": { "code": "0831000", "name": "城里町", "lon": "140.376166", "lat": "36.479363" } },
{"model": "jma.AreaInformationCity", "pk": 433, "fields": { "code": "0834100", "name": "東海村", "lon": "140.566299", "lat": "36.472880" } },
{"model": "jma.AreaInformationCity", "pk": 434, "fields": { "code": "0836400", "name": "大子町", "lon": "140.355266", "lat": "36.768096" } },
{"model": "jma.AreaInformationCity", "pk": 435, "fields": { "code": "0820300", "name": "土浦市", "lon": "140.204333", "lat": "36.078297" } },
{"model": "jma.AreaInformationCity", "pk": 436, "fields": { "code": "0820400", "name": "茨城古河市", "lon": "139.702525", "lat": "36.184645" } },
{"model": "jma.AreaInformationCity", "pk": 437, "fields": { "code": "0820500", "name": "石岡市", "lon": "140.287556", "lat": "36.190048" } },
{"model": "jma.AreaInformationCity", "pk": 438, "fields": { "code": "0820700", "name": "結城市", "lon": "139.876641", "lat": "36.305417" } },
{"model": "jma.AreaInformationCity", "pk": 439, "fields": { "code": "0820800", "name": "龍ケ崎市", "lon": "140.182264", "lat": "35.911594" } },
{"model": "jma.AreaInformationCity", "pk": 440, "fields": { "code": "0821000", "name": "下妻市", "lon": "139.967374", "lat": "36.184514" } },
{"model": "jma.AreaInformationCity", "pk": 441, "fields": { "code": "0821100", "name": "常総市", "lon": "139.993617", "lat": "36.023494" } },
{"model": "jma.AreaInformationCity", "pk": 442, "fields": { "code": "0821700", "name": "取手市", "lon": "140.050468", "lat": "35.911442" } },
{"model": "jma.AreaInformationCity", "pk": 443, "fields": { "code": "0821900", "name": "牛久市", "lon": "140.149524", "lat": "35.979375" } },
{"model": "jma.AreaInformationCity", "pk": 444, "fields": { "code": "0822000", "name": "つくば市", "lon": "140.076642", "lat": "36.083486" } },
{"model": "jma.AreaInformationCity", "pk": 445, "fields": { "code": "0822200", "name": "茨城鹿嶋市", "lon": "140.644813", "lat": "35.965756" } },
{"model": "jma.AreaInformationCity", "pk": 446, "fields": { "code": "0822300", "name": "潮来市", "lon": "140.555372", "lat": "35.947123" } },
{"model": "jma.AreaInformationCity", "pk": 447, "fields": { "code": "0822400", "name": "守谷市", "lon": "139.975391", "lat": "35.951421" } },
{"model": "jma.AreaInformationCity", "pk": 448, "fields": { "code": "0822700", "name": "筑西市", "lon": "139.983123", "lat": "36.307053" } },
{"model": "jma.AreaInformationCity", "pk": 449, "fields": { "code": "0822800", "name": "坂東市", "lon": "139.888320", "lat": "36.048738" } },
{"model": "jma.AreaInformationCity", "pk": 450, "fields": { "code": "0822900", "name": "稲敷市", "lon": "140.323908", "lat": "35.956492" } },
{"model": "jma.AreaInformationCity", "pk": 451, "fields": { "code": "0823000", "name": "かすみがうら市", "lon": "140.330691", "lat": "36.094529" } },
{"model": "jma.AreaInformationCity", "pk": 452, "fields": { "code": "0823100", "name": "桜川市", "lon": "140.090433", "lat": "36.327250" } },
{"model": "jma.AreaInformationCity", "pk": 453, "fields": { "code": "0823200", "name": "神栖市", "lon": "140.664513", "lat": "35.889966" } },
{"model": "jma.AreaInformationCity", "pk": 454, "fields": { "code": "0823300", "name": "行方市", "lon": "140.489025", "lat": "35.990416" } },
{"model": "jma.AreaInformationCity", "pk": 455, "fields": { "code": "0823400", "name": "鉾田市", "lon": "140.516461", "lat": "36.158640" } },
{"model": "jma.AreaInformationCity", "pk": 456, "fields": { "code": "0823500", "name": "つくばみらい市", "lon": "140.037020", "lat": "35.963024" } },
{"model": "jma.AreaInformationCity", "pk": 457, "fields": { "code": "0844200", "name": "美浦村", "lon": "140.301914", "lat": "36.004562" } },
{"model": "jma.AreaInformationCity", "pk": 458, "fields": { "code": "0844300", "name": "阿見町", "lon": "140.214786", "lat": "36.030795" } },
{"model": "jma.AreaInformationCity", "pk": 459, "fields": { "code": "0844700", "name": "河内町", "lon": "140.244465", "lat": "35.884794" } },
{"model": "jma.AreaInformationCity", "pk": 460, "fields": { "code": "0852100", "name": "八千代町", "lon": "139.891129", "lat": "36.181635" } },
{"model": "jma.AreaInformationCity", "pk": 461, "fields": { "code": "0854200", "name": "五霞町", "lon": "139.745832", "lat": "36.114113" } },
{"model": "jma.AreaInformationCity", "pk": 462, "fields": { "code": "0854600", "name": "境町", "lon": "139.794961", "lat": "36.108426" } },
{"model": "jma.AreaInformationCity", "pk": 463, "fields": { "code": "0856400", "name": "利根町", "lon": "140.139148", "lat": "35.857747" } },
{"model": "jma.AreaInformationCity", "pk": 464, "fields": { "code": "0920600", "name": "日光市", "lon": "139.698216", "lat": "36.719903" } },
{"model": "jma.AreaInformationCity", "pk": 465, "fields": { "code": "0921000", "name": "大田原市", "lon": "140.017419", "lat": "36.871484" } },
{"model": "jma.AreaInformationCity", "pk": 466, "fields": { "code": "0921100", "name": "矢板市", "lon": "139.924054", "lat": "36.806686" } },
{"model": "jma.AreaInformationCity", "pk": 467, "fields": { "code": "0921300", "name": "那須塩原市", "lon": "140.046066", "lat": "36.961698" } },
{"model": "jma.AreaInformationCity", "pk": 468, "fields": { "code": "0938400", "name": "塩谷町", "lon": "139.850570", "lat": "36.777613" } },
{"model": "jma.AreaInformationCity", "pk": 469, "fields": { "code": "0940700", "name": "那須町", "lon": "140.121017", "lat": "37.019731" } },
{"model": "jma.AreaInformationCity", "pk": 470, "fields": { "code": "0920100", "name": "宇都宮市", "lon": "139.882807", "lat": "36.555112" } },
{"model": "jma.AreaInformationCity", "pk": 471, "fields": { "code": "0920200", "name": "足利市", "lon": "139.449698", "lat": "36.340151" } },
{"model": "jma.AreaInformationCity", "pk": 472, "fields": { "code": "0920300", "name": "栃木市", "lon": "139.734081", "lat": "36.382380" } },
{"model": "jma.AreaInformationCity", "pk": 473, "fields": { "code": "0920400", "name": "佐野市", "lon": "139.593118", "lat": "36.308578" } },
{"model": "jma.AreaInformationCity", "pk": 474, "fields": { "code": "0920500", "name": "鹿沼市", "lon": "139.745013", "lat": "36.567111" } },
{"model": "jma.AreaInformationCity", "pk": 475, "fields": { "code": "0920800", "name": "小山市", "lon": "139.800131", "lat": "36.314671" } },
{"model": "jma.AreaInformationCity", "pk": 476, "fields": { "code": "0920900", "name": "真岡市", "lon": "140.013442", "lat": "36.440419" } },
{"model": "jma.AreaInformationCity", "pk": 477, "fields": { "code": "0921400", "name": "栃木さくら市", "lon": "139.966452", "lat": "36.685301" } },
{"model": "jma.AreaInformationCity", "pk": 478, "fields": { "code": "0921500", "name": "那須烏山市", "lon": "140.151426", "lat": "36.656893" } },
{"model": "jma.AreaInformationCity", "pk": 479, "fields": { "code": "0921600", "name": "下野市", "lon": "139.841967", "lat": "36.387195" } },
{"model": "jma.AreaInformationCity", "pk": 480, "fields": { "code": "0930100", "name": "上三川町", "lon": "139.909884", "lat": "36.439296" } },
{"model": "jma.AreaInformationCity", "pk": 481, "fields": { "code": "0934200", "name": "益子町", "lon": "140.093378", "lat": "36.467353" } },
{"model": "jma.AreaInformationCity", "pk": 482, "fields": { "code": "0934300", "name": "茂木町", "lon": "140.187565", "lat": "36.532120" } },
{"model": "jma.AreaInformationCity", "pk": 483, "fields": { "code": "0934400", "name": "市貝町", "lon": "140.102046", "lat": "36.543308" } },
{"model": "jma.AreaInformationCity", "pk": 484, "fields": { "code": "0934500", "name": "芳賀町", "lon": "140.058196", "lat": "36.548323" } },
{"model": "jma.AreaInformationCity", "pk": 485, "fields": { "code": "0936100", "name": "壬生町", "lon": "139.803932", "lat": "36.427058" } },
{"model": "jma.AreaInformationCity", "pk": 486, "fields": { "code": "0936400", "name": "野木町", "lon": "139.740750", "lat": "36.233251" } },
{"model": "jma.AreaInformationCity", "pk": 487, "fields": { "code": "0938600", "name": "高根沢町", "lon": "139.986684", "lat": "36.630973" } },
{"model": "jma.AreaInformationCity", "pk": 488, "fields": { "code": "0941100", "name": "栃木那珂川町", "lon": "140.130072", "lat": "36.761661" } },
{"model": "jma.AreaInformationCity", "pk": 489, "fields": { "code": "1020600", "name": "沼田市", "lon": "139.044161", "lat": "36.646077" } },
{"model": "jma.AreaInformationCity", "pk": 490, "fields": { "code": "1042100", "name": "中之条町", "lon": "138.840986", "lat": "36.589893" } },
{"model": "jma.AreaInformationCity", "pk": 491, "fields": { "code": "1042400", "name": "長野原町", "lon": "138.637477", "lat": "36.552446" } },
{"model": "jma.AreaInformationCity", "pk": 492, "fields": { "code": "1042500", "name": "嬬恋村", "lon": "138.530182", "lat": "36.516874" } },
{"model": "jma.AreaInformationCity", "pk": 493, "fields": { "code": "1042600", "name": "草津町", "lon": "138.596053", "lat": "36.620778" } },
{"model": "jma.AreaInformationCity", "pk": 494, "fields": { "code": "1042800", "name": "群馬高山村", "lon": "138.943449", "lat": "36.620887" } },
{"model": "jma.AreaInformationCity", "pk": 495, "fields": { "code": "1042900", "name": "東吾妻町", "lon": "138.825472", "lat": "36.571347" } },
{"model": "jma.AreaInformationCity", "pk": 496, "fields": { "code": "1044300", "name": "片品村", "lon": "139.225243", "lat": "36.772469" } },
{"model": "jma.AreaInformationCity", "pk": 497, "fields": { "code": "1044400", "name": "川場村", "lon": "139.106534", "lat": "36.694669" } },
{"model": "jma.AreaInformationCity", "pk": 498, "fields": { "code": "1044800", "name": "群馬昭和村", "lon": "139.065865", "lat": "36.639753" } },
{"model": "jma.AreaInformationCity", "pk": 499, "fields": { "code": "1044900", "name": "みなかみ町", "lon": "138.999064", "lat": "36.678700" } },
{"model": "jma.AreaInformationCity", "pk": 500, "fields": { "code": "1020100", "name": "前橋市", "lon": "139.063428", "lat": "36.389482" } },
{"model": "jma.AreaInformationCity", "pk": 501, "fields": { "code": "1020200", "name": "高崎市", "lon": "139.003294", "lat": "36.321909" } },
{"model": "jma.AreaInformationCity", "pk": 502, "fields": { "code": "1020300", "name": "桐生市", "lon": "139.330688", "lat": "36.405491" } },
{"model": "jma.AreaInformationCity", "pk": 503, "fields": { "code": "1020400", "name": "伊勢崎市", "lon": "139.196770", "lat": "36.311364" } },
{"model": "jma.AreaInformationCity", "pk": 504, "fields": { "code": "1020500", "name": "太田市", "lon": "139.375471", "lat": "36.291122" } },
{"model": "jma.AreaInformationCity", "pk": 505, "fields": { "code": "1020700", "name": "館林市", "lon": "139.541968", "lat": "36.244849" } },
{"model": "jma.AreaInformationCity", "pk": 506, "fields": { "code": "1020800", "name": "渋川市", "lon": "139.000448", "lat": "36.489471" } },
{"model": "jma.AreaInformationCity", "pk": 507, "fields": { "code": "1020900", "name": "藤岡市", "lon": "139.074439", "lat": "36.258477" } },
{"model": "jma.AreaInformationCity", "pk": 508, "fields": { "code": "1021000", "name": "富岡市", "lon": "138.889932", "lat": "36.259896" } },
{"model": "jma.AreaInformationCity", "pk": 509, "fields": { "code": "1021100", "name": "安中市", "lon": "138.887324", "lat": "36.326368" } },
{"model": "jma.AreaInformationCity", "pk": 510, "fields": { "code": "1021200", "name": "みどり市", "lon": "139.281135", "lat": "36.394838" } },
{"model": "jma.AreaInformationCity", "pk": 511, "fields": { "code": "1034400", "name": "榛東村", "lon": "138.967118", "lat": "36.438642" } },
{"model": "jma.AreaInformationCity", "pk": 512, "fields": { "code": "1034500", "name": "吉岡町", "lon": "139.009766", "lat": "36.447501" } },
{"model": "jma.AreaInformationCity", "pk": 513, "fields": { "code": "1036600", "name": "群馬上野村", "lon": "138.777376", "lat": "36.083143" } },
{"model": "jma.AreaInformationCity", "pk": 514, "fields": { "code": "1036700", "name": "神流町", "lon": "138.916955", "lat": "36.116056" } },
{"model": "jma.AreaInformationCity", "pk": 515, "fields": { "code": "1038200", "name": "下仁田町", "lon": "138.789094", "lat": "36.212390" } },
{"model": "jma.AreaInformationCity", "pk": 516, "fields": { "code": "1038300", "name": "群馬南牧村", "lon": "138.711406", "lat": "36.158548" } },
{"model": "jma.AreaInformationCity", "pk": 517, "fields": { "code": "1038400", "name": "甘楽町", "lon": "138.921682", "lat": "36.242954" } },
{"model": "jma.AreaInformationCity", "pk": 518, "fields": { "code": "1046400", "name": "玉村町", "lon": "139.114913", "lat": "36.304433" } },
{"model": "jma.AreaInformationCity", "pk": 519, "fields": { "code": "1052100", "name": "板倉町", "lon": "139.610271", "lat": "36.222952" } },
{"model": "jma.AreaInformationCity", "pk": 520, "fields": { "code": "1052200", "name": "群馬明和町", "lon": "139.534244", "lat": "36.211300" } },
{"model": "jma.AreaInformationCity", "pk": 521, "fields": { "code": "1052300", "name": "千代田町", "lon": "139.442435", "lat": "36.217754" } },
{"model": "jma.AreaInformationCity", "pk": 522, "fields": { "code": "1052400", "name": "大泉町", "lon": "139.404870", "lat": "36.247902" } },
{"model": "jma.AreaInformationCity", "pk": 523, "fields": { "code": "1052500", "name": "邑楽町", "lon": "139.462286", "lat": "36.252394" } },
{"model": "jma.AreaInformationCity", "pk": 524, "fields": { "code": "1120200", "name": "熊谷市", "lon": "139.388645", "lat": "36.147310" } },
{"model": "jma.AreaInformationCity", "pk": 525, "fields": { "code": "1120600", "name": "行田市", "lon": "139.455643", "lat": "36.138949" } },
{"model": "jma.AreaInformationCity", "pk": 526, "fields": { "code": "1121000", "name": "加須市", "lon": "139.601719", "lat": "36.131438" } },
{"model": "jma.AreaInformationCity", "pk": 527, "fields": { "code": "1121100", "name": "本庄市", "lon": "139.190393", "lat": "36.243568" } },
{"model": "jma.AreaInformationCity", "pk": 528, "fields": { "code": "1121200", "name": "東松山市", "lon": "139.399959", "lat": "36.042126" } },
{"model": "jma.AreaInformationCity", "pk": 529, "fields": { "code": "1121600", "name": "羽生市", "lon": "139.548465", "lat": "36.172626" } },
{"model": "jma.AreaInformationCity", "pk": 530, "fields": { "code": "1121700", "name": "鴻巣市", "lon": "139.522169", "lat": "36.065758" } },
{"model": "jma.AreaInformationCity", "pk": 531, "fields": { "code": "1121800", "name": "深谷市", "lon": "139.281464", "lat": "36.197444" } },
{"model": "jma.AreaInformationCity", "pk": 532, "fields": { "code": "1123200", "name": "久喜市", "lon": "139.666838", "lat": "36.061995" } },
{"model": "jma.AreaInformationCity", "pk": 533, "fields": { "code": "1134100", "name": "滑川町", "lon": "139.360917", "lat": "36.065987" } },
{"model": "jma.AreaInformationCity", "pk": 534, "fields": { "code": "1134200", "name": "嵐山町", "lon": "139.320542", "lat": "36.056655" } },
{"model": "jma.AreaInformationCity", "pk": 535, "fields": { "code": "1134300", "name": "小川町", "lon": "139.261845", "lat": "36.056697" } },
{"model": "jma.AreaInformationCity", "pk": 536, "fields": { "code": "1134700", "name": "吉見町", "lon": "139.453728", "lat": "36.039853" } },
{"model": "jma.AreaInformationCity", "pk": 537, "fields": { "code": "1134800", "name": "鳩山町", "lon": "139.334101", "lat": "35.981466" } },
{"model": "jma.AreaInformationCity", "pk": 538, "fields": { "code": "1134900", "name": "ときがわ町", "lon": "139.296844", "lat": "36.008620" } },
{"model": "jma.AreaInformationCity", "pk": 539, "fields": { "code": "1136900", "name": "東秩父村", "lon": "139.194607", "lat": "36.058153" } },
{"model": "jma.AreaInformationCity", "pk": 540, "fields": { "code": "1138100", "name": "埼玉美里町", "lon": "139.181410", "lat": "36.177104" } },
{"model": "jma.AreaInformationCity", "pk": 541, "fields": { "code": "1138300", "name": "埼玉神川町", "lon": "139.101776", "lat": "36.213876" } },
{"model": "jma.AreaInformationCity", "pk": 542, "fields": { "code": "1138500", "name": "上里町", "lon": "139.144826", "lat": "36.251607" } },
{"model": "jma.AreaInformationCity", "pk": 543, "fields": { "code": "1140800", "name": "寄居町", "lon": "139.193012", "lat": "36.118348" } },
{"model": "jma.AreaInformationCity", "pk": 544, "fields": { "code": "1110100", "name": "さいたま西区", "lon": "139.579472", "lat": "35.925302" } },
{"model": "jma.AreaInformationCity", "pk": 545, "fields": { "code": "1110200", "name": "さいたま北区", "lon": "139.620346", "lat": "35.931522" } },
{"model": "jma.AreaInformationCity", "pk": 546, "fields": { "code": "1110300", "name": "さいたま大宮区", "lon": "139.628754", "lat": "35.906487" } },
{"model": "jma.AreaInformationCity", "pk": 547, "fields": { "code": "1110400", "name": "さいたま見沼区", "lon": "139.654526", "lat": "35.935206" } },
{"model": "jma.AreaInformationCity", "pk": 548, "fields": { "code": "1110500", "name": "さいたま中央区", "lon": "139.626102", "lat": "35.884096" } },
{"model": "jma.AreaInformationCity", "pk": 549, "fields": { "code": "1110600", "name": "さいたま桜区", "lon": "139.610352", "lat": "35.856140" } },
{"model": "jma.AreaInformationCity", "pk": 550, "fields": { "code": "1110700", "name": "さいたま浦和区", "lon": "139.645435", "lat": "35.861651" } },
{"model": "jma.AreaInformationCity", "pk": 551, "fields": { "code": "1110800", "name": "さいたま南区", "lon": "139.645352", "lat": "35.845253" } },
{"model": "jma.AreaInformationCity", "pk": 552, "fields": { "code": "1110900", "name": "さいたま緑区", "lon": "139.683970", "lat": "35.871087" } },
{"model": "jma.AreaInformationCity", "pk": 553, "fields": { "code": "1111000", "name": "さいたま岩槻区", "lon": "139.694191", "lat": "35.949861" } },
{"model": "jma.AreaInformationCity", "pk": 554, "fields": { "code": "1120100", "name": "川越市", "lon": "139.485793", "lat": "35.925101" } },
{"model": "jma.AreaInformationCity", "pk": 555, "fields": { "code": "1120300", "name": "川口市", "lon": "139.724171", "lat": "35.807738" } },
{"model": "jma.AreaInformationCity", "pk": 556, "fields": { "code": "1120800", "name": "所沢市", "lon": "139.468610", "lat": "35.799672" } },
{"model": "jma.AreaInformationCity", "pk": 557, "fields": { "code": "1120900", "name": "飯能市", "lon": "139.327734", "lat": "35.855731" } },
{"model": "jma.AreaInformationCity", "pk": 558, "fields": { "code": "1121400", "name": "春日部市", "lon": "139.752301", "lat": "35.975198" } },
{"model": "jma.AreaInformationCity", "pk": 559, "fields": { "code": "1121500", "name": "狭山市", "lon": "139.412213", "lat": "35.852942" } },
{"model": "jma.AreaInformationCity", "pk": 560, "fields": { "code": "1121900", "name": "上尾市", "lon": "139.593206", "lat": "35.977381" } },
{"model": "jma.AreaInformationCity", "pk": 561, "fields": { "code": "1122100", "name": "草加市", "lon": "139.805402", "lat": "35.825355" } },
{"model": "jma.AreaInformationCity", "pk": 562, "fields": { "code": "1122200", "name": "越谷市", "lon": "139.790938", "lat": "35.891084" } },
{"model": "jma.AreaInformationCity", "pk": 563, "fields": { "code": "1122300", "name": "蕨市", "lon": "139.679708", "lat": "35.825634" } },
{"model": "jma.AreaInformationCity", "pk": 564, "fields": { "code": "1122400", "name": "戸田市", "lon": "139.677892", "lat": "35.817616" } },
{"model": "jma.AreaInformationCity", "pk": 565, "fields": { "code": "1122500", "name": "入間市", "lon": "139.391058", "lat": "35.835766" } },
{"model": "jma.AreaInformationCity", "pk": 566, "fields": { "code": "1122700", "name": "朝霞市", "lon": "139.593916", "lat": "35.797252" } },
{"model": "jma.AreaInformationCity", "pk": 567, "fields": { "code": "1122800", "name": "志木市", "lon": "139.580319", "lat": "35.836750" } },
{"model": "jma.AreaInformationCity", "pk": 568, "fields": { "code": "1122900", "name": "和光市", "lon": "139.605793", "lat": "35.781208" } },
{"model": "jma.AreaInformationCity", "pk": 569, "fields": { "code": "1123000", "name": "新座市", "lon": "139.565369", "lat": "35.793511" } },
{"model": "jma.AreaInformationCity", "pk": 570, "fields": { "code": "1123100", "name": "桶川市", "lon": "139.542531", "lat": "36.005779" } },
{"model": "jma.AreaInformationCity", "pk": 571, "fields": { "code": "1123300", "name": "北本市", "lon": "139.530211", "lat": "36.026768" } },
{"model": "jma.AreaInformationCity", "pk": 572, "fields": { "code": "1123400", "name": "八潮市", "lon": "139.839175", "lat": "35.822536" } },
{"model": "jma.AreaInformationCity", "pk": 573, "fields": { "code": "1123500", "name": "富士見市", "lon": "139.549074", "lat": "35.856759" } },
{"model": "jma.AreaInformationCity", "pk": 574, "fields": { "code": "1123700", "name": "三郷市", "lon": "139.872275", "lat": "35.830149" } },
{"model": "jma.AreaInformationCity", "pk": 575, "fields": { "code": "1123800", "name": "蓮田市", "lon": "139.662106", "lat": "35.994307" } },
{"model": "jma.AreaInformationCity", "pk": 576, "fields": { "code": "1123900", "name": "坂戸市", "lon": "139.402905", "lat": "35.957170" } },
{"model": "jma.AreaInformationCity", "pk": 577, "fields": { "code": "1124000", "name": "幸手市", "lon": "139.725861", "lat": "36.078072" } },
{"model": "jma.AreaInformationCity", "pk": 578, "fields": { "code": "1124100", "name": "鶴ヶ島市", "lon": "139.393098", "lat": "35.934515" } },
{"model": "jma.AreaInformationCity", "pk": 579, "fields": { "code": "1124200", "name": "日高市", "lon": "139.339026", "lat": "35.907796" } },
{"model": "jma.AreaInformationCity", "pk": 580, "fields": { "code": "1124300", "name": "吉川市", "lon": "139.841375", "lat": "35.891152" } },
{"model": "jma.AreaInformationCity", "pk": 581, "fields": { "code": "1124500", "name": "ふじみ野市", "lon": "139.519764", "lat": "35.879538" } },
{"model": "jma.AreaInformationCity", "pk": 582, "fields": { "code": "1124600", "name": "白岡市", "lon": "139.676925", "lat": "36.019026" } },
{"model": "jma.AreaInformationCity", "pk": 583, "fields": { "code": "1130100", "name": "伊奈町", "lon": "139.624185", "lat": "36.000112" } },
{"model": "jma.AreaInformationCity", "pk": 584, "fields": { "code": "1132400", "name": "埼玉三芳町", "lon": "139.526432", "lat": "35.828367" } },
{"model": "jma.AreaInformationCity", "pk": 585, "fields": { "code": "1132600", "name": "毛呂山町", "lon": "139.316067", "lat": "35.941501" } },
{"model": "jma.AreaInformationCity", "pk": 586, "fields": { "code": "1132700", "name": "越生町", "lon": "139.294199", "lat": "35.964478" } },
{"model": "jma.AreaInformationCity", "pk": 587, "fields": { "code": "1134600", "name": "川島町", "lon": "139.481518", "lat": "35.982014" } },
{"model": "jma.AreaInformationCity", "pk": 588, "fields": { "code": "1144200", "name": "宮代町", "lon": "139.722885", "lat": "36.022682" } },
{"model": "jma.AreaInformationCity", "pk": 589, "fields": { "code": "1146400", "name": "杉戸町", "lon": "139.736709", "lat": "36.025765" } },
{"model": "jma.AreaInformationCity", "pk": 590, "fields": { "code": "1146500", "name": "松伏町", "lon": "139.815178", "lat": "35.925774" } },
{"model": "jma.AreaInformationCity", "pk": 591, "fields": { "code": "1120700", "name": "秩父市", "lon": "139.084817", "lat": "35.992055" } },
{"model": "jma.AreaInformationCity", "pk": 592, "fields": { "code": "1136100", "name": "横瀬町", "lon": "139.100046", "lat": "35.987284" } },
{"model": "jma.AreaInformationCity", "pk": 593, "fields": { "code": "1136200", "name": "皆野町", "lon": "139.098754", "lat": "36.070840" } },
{"model": "jma.AreaInformationCity", "pk": 594, "fields": { "code": "1136300", "name": "長瀞町", "lon": "139.109717", "lat": "36.114803" } },
{"model": "jma.AreaInformationCity", "pk": 595, "fields": { "code": "1136500", "name": "小鹿野町", "lon": "139.008574", "lat": "36.017129" } },
{"model": "jma.AreaInformationCity", "pk": 596, "fields": { "code": "1220200", "name": "銚子市", "lon": "140.826641", "lat": "35.734681" } },
{"model": "jma.AreaInformationCity", "pk": 597, "fields": { "code": "1221000", "name": "茂原市", "lon": "140.288027", "lat": "35.428544" } },
{"model": "jma.AreaInformationCity", "pk": 598, "fields": { "code": "1221300", "name": "東金市", "lon": "140.366092", "lat": "35.559944" } },
{"model": "jma.AreaInformationCity", "pk": 599, "fields": { "code": "1221500", "name": "旭市", "lon": "140.646469", "lat": "35.720434" } },
{"model": "jma.AreaInformationCity", "pk": 600, "fields": { "code": "1223500", "name": "匝瑳市", "lon": "140.564281", "lat": "35.707917" } },
{"model": "jma.AreaInformationCity", "pk": 601, "fields": { "code": "1223600", "name": "香取市", "lon": "140.499268", "lat": "35.897735" } },
{"model": "jma.AreaInformationCity", "pk": 602, "fields": { "code": "1223700", "name": "山武市", "lon": "140.413506", "lat": "35.602964" } },
{"model": "jma.AreaInformationCity", "pk": 603, "fields": { "code": "1223900", "name": "大網白里市", "lon": "140.320960", "lat": "35.521708" } },
{"model": "jma.AreaInformationCity", "pk": 604, "fields": { "code": "1234200", "name": "神崎町", "lon": "140.405285", "lat": "35.901602" } },
{"model": "jma.AreaInformationCity", "pk": 605, "fields": { "code": "1234700", "name": "多古町", "lon": "140.467728", "lat": "35.735434" } },
{"model": "jma.AreaInformationCity", "pk": 606, "fields": { "code": "1234900", "name": "東庄町", "lon": "140.668581", "lat": "35.837150" } },
{"model": "jma.AreaInformationCity", "pk": 607, "fields": { "code": "1240300", "name": "九十九里町", "lon": "140.440250", "lat": "35.535062" } },
{"model": "jma.AreaInformationCity", "pk": 608, "fields": { "code": "1240900", "name": "芝山町", "lon": "140.414194", "lat": "35.693056" } },
{"model": "jma.AreaInformationCity", "pk": 609, "fields": { "code": "1241000", "name": "横芝光町", "lon": "140.504309", "lat": "35.665568" } },
{"model": "jma.AreaInformationCity", "pk": 610, "fields": { "code": "1242100", "name": "一宮町", "lon": "140.368659", "lat": "35.372623" } },
{"model": "jma.AreaInformationCity", "pk": 611, "fields": { "code": "1242200", "name": "睦沢町", "lon": "140.319273", "lat": "35.361088" } },
{"model": "jma.AreaInformationCity", "pk": 612, "fields": { "code": "1242300", "name": "長生村", "lon": "140.354060", "lat": "35.412184" } },
{"model": "jma.AreaInformationCity", "pk": 613, "fields": { "code": "1242400", "name": "白子町", "lon": "140.374234", "lat": "35.454340" } },
{"model": "jma.AreaInformationCity", "pk": 614, "fields": { "code": "1242600", "name": "長柄町", "lon": "140.227059", "lat": "35.431125" } },
{"model": "jma.AreaInformationCity", "pk": 615, "fields": { "code": "1242700", "name": "長南町", "lon": "140.237065", "lat": "35.386421" } },
{"model": "jma.AreaInformationCity", "pk": 616, "fields": { "code": "1210100", "name": "千葉中央区", "lon": "140.124636", "lat": "35.608932" } },
{"model": "jma.AreaInformationCity", "pk": 617, "fields": { "code": "1210200", "name": "千葉花見川区", "lon": "140.069167", "lat": "35.662977" } },
{"model": "jma.AreaInformationCity", "pk": 618, "fields": { "code": "1210300", "name": "千葉稲毛区", "lon": "140.107083", "lat": "35.636212" } },
{"model": "jma.AreaInformationCity", "pk": 619, "fields": { "code": "1210400", "name": "千葉若葉区", "lon": "140.155661", "lat": "35.633988" } },
{"model": "jma.AreaInformationCity", "pk": 620, "fields": { "code": "1210500", "name": "千葉緑区", "lon": "140.176164", "lat": "35.560459" } },
{"model": "jma.AreaInformationCity", "pk": 621, "fields": { "code": "1210600", "name": "千葉美浜区", "lon": "140.063040", "lat": "35.640485" } },
{"model": "jma.AreaInformationCity", "pk": 622, "fields": { "code": "1220300", "name": "市川市", "lon": "139.931010", "lat": "35.721912" } },
{"model": "jma.AreaInformationCity", "pk": 623, "fields": { "code": "1220400", "name": "船橋市", "lon": "139.982618", "lat": "35.694706" } },
{"model": "jma.AreaInformationCity", "pk": 624, "fields": { "code": "1220700", "name": "松戸市", "lon": "139.903093", "lat": "35.787649" } },
{"model": "jma.AreaInformationCity", "pk": 625, "fields": { "code": "1220800", "name": "野田市", "lon": "139.874764", "lat": "35.955192" } },
{"model": "jma.AreaInformationCity", "pk": 626, "fields": { "code": "1221100", "name": "成田市", "lon": "140.318781", "lat": "35.776608" } },
{"model": "jma.AreaInformationCity", "pk": 627, "fields": { "code": "1221200", "name": "千葉佐倉市", "lon": "140.223964", "lat": "35.723486" } },
{"model": "jma.AreaInformationCity", "pk": 628, "fields": { "code": "1221600", "name": "習志野市", "lon": "140.024365", "lat": "35.683035" } },
{"model": "jma.AreaInformationCity", "pk": 629, "fields": { "code": "1221700", "name": "柏市", "lon": "139.975850", "lat": "35.867612" } },
{"model": "jma.AreaInformationCity", "pk": 630, "fields": { "code": "1221900", "name": "市原市", "lon": "140.115665", "lat": "35.497838" } },
{"model": "jma.AreaInformationCity", "pk": 631, "fields": { "code": "1222000", "name": "流山市", "lon": "139.902660", "lat": "35.856310" } },
{"model": "jma.AreaInformationCity", "pk": 632, "fields": { "code": "1222100", "name": "八千代市", "lon": "140.099772", "lat": "35.722468" } },
{"model": "jma.AreaInformationCity", "pk": 633, "fields": { "code": "1222200", "name": "我孫子市", "lon": "140.028225", "lat": "35.864123" } },
{"model": "jma.AreaInformationCity", "pk": 634, "fields": { "code": "1222400", "name": "鎌ケ谷市", "lon": "140.000790", "lat": "35.776750" } },
{"model": "jma.AreaInformationCity", "pk": 635, "fields": { "code": "1222700", "name": "浦安市", "lon": "139.902203", "lat": "35.653984" } },
{"model": "jma.AreaInformationCity", "pk": 636, "fields": { "code": "1222800", "name": "四街道市", "lon": "140.167925", "lat": "35.669816" } },
{"model": "jma.AreaInformationCity", "pk": 637, "fields": { "code": "1223000", "name": "八街市", "lon": "140.317952", "lat": "35.665917" } },
{"model": "jma.AreaInformationCity", "pk": 638, "fields": { "code": "1223100", "name": "印西市", "lon": "140.145815", "lat": "35.832348" } },
{"model": "jma.AreaInformationCity", "pk": 639, "fields": { "code": "1223200", "name": "白井市", "lon": "140.056372", "lat": "35.791500" } },
{"model": "jma.AreaInformationCity", "pk": 640, "fields": { "code": "1223300", "name": "富里市", "lon": "140.343058", "lat": "35.726808" } },
{"model": "jma.AreaInformationCity", "pk": 641, "fields": { "code": "1232200", "name": "酒々井町", "lon": "140.269547", "lat": "35.724824" } },
{"model": "jma.AreaInformationCity", "pk": 642, "fields": { "code": "1232900", "name": "栄町", "lon": "140.243831", "lat": "35.840784" } },
{"model": "jma.AreaInformationCity", "pk": 643, "fields": { "code": "1220500", "name": "館山市", "lon": "139.869965", "lat": "34.996506" } },
{"model": "jma.AreaInformationCity", "pk": 644, "fields": { "code": "1220600", "name": "木更津市", "lon": "139.924860", "lat": "35.381227" } },
{"model": "jma.AreaInformationCity", "pk": 645, "fields": { "code": "1221800", "name": "勝浦市", "lon": "140.320932", "lat": "35.152283" } },
{"model": "jma.AreaInformationCity", "pk": 646, "fields": { "code": "1222300", "name": "鴨川市", "lon": "140.098711", "lat": "35.113987" } },
{"model": "jma.AreaInformationCity", "pk": 647, "fields": { "code": "1222500", "name": "君津市", "lon": "139.902677", "lat": "35.330450" } },
{"model": "jma.AreaInformationCity", "pk": 648, "fields": { "code": "1222600", "name": "富津市", "lon": "139.857105", "lat": "35.304120" } },
{"model": "jma.AreaInformationCity", "pk": 649, "fields": { "code": "1222900", "name": "袖ケ浦市", "lon": "139.954430", "lat": "35.429808" } },
{"model": "jma.AreaInformationCity", "pk": 650, "fields": { "code": "1223400", "name": "南房総市", "lon": "139.840128", "lat": "35.042991" } },
{"model": "jma.AreaInformationCity", "pk": 651, "fields": { "code": "1223800", "name": "いすみ市", "lon": "140.385051", "lat": "35.253889" } },
{"model": "jma.AreaInformationCity", "pk": 652, "fields": { "code": "1244100", "name": "大多喜町", "lon": "140.245439", "lat": "35.285191" } },
{"model": "jma.AreaInformationCity", "pk": 653, "fields": { "code": "1244300", "name": "御宿町", "lon": "140.348796", "lat": "35.191506" } },
{"model": "jma.AreaInformationCity", "pk": 654, "fields": { "code": "1246300", "name": "鋸南町", "lon": "139.835509", "lat": "35.111159" } },
{"model": "jma.AreaInformationCity", "pk": 655, "fields": { "code": "1310100", "name": "東京千代田区", "lon": "139.753595", "lat": "35.694003" } },
{"model": "jma.AreaInformationCity", "pk": 656, "fields": { "code": "1310200", "name": "東京中央区", "lon": "139.771861", "lat": "35.670651" } },
{"model": "jma.AreaInformationCity", "pk": 657, "fields": { "code": "1310300", "name": "東京港区", "lon": "139.751599", "lat": "35.658068" } },
{"model": "jma.AreaInformationCity", "pk": 658, "fields": { "code": "1310400", "name": "東京新宿区", "lon": "139.703549", "lat": "35.693840" } },
{"model": "jma.AreaInformationCity", "pk": 659, "fields": { "code": "1310500", "name": "東京文京区", "lon": "139.752167", "lat": "35.708068" } },
{"model": "jma.AreaInformationCity", "pk": 660, "fields": { "code": "1310600", "name": "東京台東区", "lon": "139.779996", "lat": "35.712607" } },
{"model": "jma.AreaInformationCity", "pk": 661, "fields": { "code": "1310700", "name": "東京墨田区", "lon": "139.801497", "lat": "35.710722" } },
{"model": "jma.AreaInformationCity", "pk": 662, "fields": { "code": "1310800", "name": "東京江東区", "lon": "139.817410", "lat": "35.672854" } },
{"model": "jma.AreaInformationCity", "pk": 663, "fields": { "code": "1310900", "name": "東京品川区", "lon": "139.730186", "lat": "35.609226" } },
{"model": "jma.AreaInformationCity", "pk": 664, "fields": { "code": "1311000", "name": "東京目黒区", "lon": "139.698171", "lat": "35.641463" } },
{"model": "jma.AreaInformationCity", "pk": 665, "fields": { "code": "1311100", "name": "東京大田区", "lon": "139.716051", "lat": "35.561257" } },
{"model": "jma.AreaInformationCity", "pk": 666, "fields": { "code": "1311200", "name": "東京世田谷区", "lon": "139.653247", "lat": "35.646572" } },
{"model": "jma.AreaInformationCity", "pk": 667, "fields": { "code": "1311300", "name": "東京渋谷区", "lon": "139.704051", "lat": "35.661777" } },
{"model": "jma.AreaInformationCity", "pk": 668, "fields": { "code": "1311400", "name": "東京中野区", "lon": "139.663835", "lat": "35.707399" } },
{"model": "jma.AreaInformationCity", "pk": 669, "fields": { "code": "1311500", "name": "東京杉並区", "lon": "139.636438", "lat": "35.699566" } },
{"model": "jma.AreaInformationCity", "pk": 670, "fields": { "code": "1311600", "name": "東京豊島区", "lon": "139.716605", "lat": "35.726118" } },
{"model": "jma.AreaInformationCity", "pk": 671, "fields": { "code": "1311700", "name": "東京北区", "lon": "139.733481", "lat": "35.752804" } },
{"model": "jma.AreaInformationCity", "pk": 672, "fields": { "code": "1311800", "name": "東京荒川区", "lon": "139.783369", "lat": "35.736080" } },
{"model": "jma.AreaInformationCity", "pk": 673, "fields": { "code": "1311900", "name": "東京板橋区", "lon": "139.709244", "lat": "35.751165" } },
{"model": "jma.AreaInformationCity", "pk": 674, "fields": { "code": "1312000", "name": "東京練馬区", "lon": "139.651658", "lat": "35.735623" } },
{"model": "jma.AreaInformationCity", "pk": 675, "fields": { "code": "1312100", "name": "東京足立区", "lon": "139.804479", "lat": "35.775664" } },
{"model": "jma.AreaInformationCity", "pk": 676, "fields": { "code": "1312200", "name": "東京葛飾区", "lon": "139.847180", "lat": "35.743575" } },
{"model": "jma.AreaInformationCity", "pk": 677, "fields": { "code": "1312300", "name": "東京江戸川区", "lon": "139.868427", "lat": "35.706657" } },
{"model": "jma.AreaInformationCity", "pk": 678, "fields": { "code": "1320100", "name": "八王子市", "lon": "139.315806", "lat": "35.666339" } },
{"model": "jma.AreaInformationCity", "pk": 679, "fields": { "code": "1320200", "name": "立川市", "lon": "139.407843", "lat": "35.714014" } },
{"model": "jma.AreaInformationCity", "pk": 680, "fields": { "code": "1320300", "name": "武蔵野市", "lon": "139.566260", "lat": "35.717784" } },
{"model": "jma.AreaInformationCity", "pk": 681, "fields": { "code": "1320400", "name": "三鷹市", "lon": "139.559584", "lat": "35.683513" } },
{"model": "jma.AreaInformationCity", "pk": 682, "fields": { "code": "1320600", "name": "東京府中市", "lon": "139.477661", "lat": "35.668974" } },
{"model": "jma.AreaInformationCity", "pk": 683, "fields": { "code": "1320700", "name": "昭島市", "lon": "139.353548", "lat": "35.705755" } },
{"model": "jma.AreaInformationCity", "pk": 684, "fields": { "code": "1320800", "name": "調布市", "lon": "139.540694", "lat": "35.650615" } },
{"model": "jma.AreaInformationCity", "pk": 685, "fields": { "code": "1320900", "name": "町田市", "lon": "139.438619", "lat": "35.546631" } },
{"model": "jma.AreaInformationCity", "pk": 686, "fields": { "code": "1321000", "name": "小金井市", "lon": "139.502992", "lat": "35.699473" } },
{"model": "jma.AreaInformationCity", "pk": 687, "fields": { "code": "1321100", "name": "小平市", "lon": "139.477456", "lat": "35.728577" } },
{"model": "jma.AreaInformationCity", "pk": 688, "fields": { "code": "1321200", "name": "日野市", "lon": "139.394926", "lat": "35.671337" } },
{"model": "jma.AreaInformationCity", "pk": 689, "fields": { "code": "1321300", "name": "東村山市", "lon": "139.468489", "lat": "35.754597" } },
{"model": "jma.AreaInformationCity", "pk": 690, "fields": { "code": "1321400", "name": "国分寺市", "lon": "139.463191", "lat": "35.710335" } },
{"model": "jma.AreaInformationCity", "pk": 691, "fields": { "code": "1321500", "name": "国立市", "lon": "139.441380", "lat": "35.683885" } },
{"model": "jma.AreaInformationCity", "pk": 692, "fields": { "code": "1321800", "name": "福生市", "lon": "139.326932", "lat": "35.738451" } },
{"model": "jma.AreaInformationCity", "pk": 693, "fields": { "code": "1321900", "name": "狛江市", "lon": "139.578733", "lat": "35.634912" } },
{"model": "jma.AreaInformationCity", "pk": 694, "fields": { "code": "1322000", "name": "東大和市", "lon": "139.426593", "lat": "35.745369" } },
{"model": "jma.AreaInformationCity", "pk": 695, "fields": { "code": "1322100", "name": "清瀬市", "lon": "139.526430", "lat": "35.785753" } },
{"model": "jma.AreaInformationCity", "pk": 696, "fields": { "code": "1322200", "name": "東久留米市", "lon": "139.529739", "lat": "35.758048" } },
{"model": "jma.AreaInformationCity", "pk": 697, "fields": { "code": "1322300", "name": "武蔵村山市", "lon": "139.387399", "lat": "35.754861" } },
{"model": "jma.AreaInformationCity", "pk": 698, "fields": { "code": "1322400", "name": "多摩市", "lon": "139.446307", "lat": "35.637004" } },
{"model": "jma.AreaInformationCity", "pk": 699, "fields": { "code": "1322500", "name": "稲城市", "lon": "139.504567", "lat": "35.637924" } },
{"model": "jma.AreaInformationCity", "pk": 700, "fields": { "code": "1322700", "name": "羽村市", "lon": "139.310944", "lat": "35.767222" } },
{"model": "jma.AreaInformationCity", "pk": 701, "fields": { "code": "1322900", "name": "西東京市", "lon": "139.538156", "lat": "35.725496" } },
{"model": "jma.AreaInformationCity", "pk": 702, "fields": { "code": "1330300", "name": "瑞穂町", "lon": "139.353846", "lat": "35.772036" } },
{"model": "jma.AreaInformationCity", "pk": 703, "fields": { "code": "1320500", "name": "青梅市", "lon": "139.275830", "lat": "35.787996" } },
{"model": "jma.AreaInformationCity", "pk": 704, "fields": { "code": "1322800", "name": "あきる野市", "lon": "139.294119", "lat": "35.728920" } },
{"model": "jma.AreaInformationCity", "pk": 705, "fields": { "code": "1330500", "name": "日の出町", "lon": "139.257444", "lat": "35.742142" } },
{"model": "jma.AreaInformationCity", "pk": 706, "fields": { "code": "1330700", "name": "檜原村", "lon": "139.148866", "lat": "35.726839" } },
{"model": "jma.AreaInformationCity", "pk": 707, "fields": { "code": "1330800", "name": "奥多摩町", "lon": "139.096197", "lat": "35.809543" } },
{"model": "jma.AreaInformationCity", "pk": 708, "fields": { "code": "1336400", "name": "神津島村", "lon": "139.134255", "lat": "34.205267" } },
{"model": "jma.AreaInformationCity", "pk": 709, "fields": { "code": "1336100", "name": "伊豆大島町", "lon": "139.355579", "lat": "34.750040" } },
{"model": "jma.AreaInformationCity", "pk": 710, "fields": { "code": "1336200", "name": "東京利島村", "lon": "139.282585", "lat": "34.529364" } },
{"model": "jma.AreaInformationCity", "pk": 711, "fields": { "code": "1336300", "name": "新島村", "lon": "139.256571", "lat": "34.377134" } },
{"model": "jma.AreaInformationCity", "pk": 712, "fields": { "code": "1338100", "name": "三宅村", "lon": "139.479744", "lat": "34.075774" } },
{"model": "jma.AreaInformationCity", "pk": 713, "fields": { "code": "1338200", "name": "御蔵島村", "lon": "139.596116", "lat": "33.897366" } },
{"model": "jma.AreaInformationCity", "pk": 714, "fields": { "code": "1340100", "name": "八丈町", "lon": "139.789065", "lat": "33.112740" } },
{"model": "jma.AreaInformationCity", "pk": 715, "fields": { "code": "1340200", "name": "青ヶ島村", "lon": "139.763312", "lat": "32.466459" } },
{"model": "jma.AreaInformationCity", "pk": 716, "fields": { "code": "1342100", "name": "小笠原村", "lon": "142.191918", "lat": "27.094366" } },
{"model": "jma.AreaInformationCity", "pk": 717, "fields": { "code": "1410100", "name": "横浜鶴見区", "lon": "139.682540", "lat": "35.508404" } },